stop_id,stop_code,stop_name,stop_lat,stop_lon,location_type,stop_timezone,wheelchair_boarding
PLOTTIER,317864,Plottière,47.522342,-0.6109019999999999,0,Europe/Paris,1
CHMART-E,2510,Champ des Martyrs,47.49006,-0.5826249999999999,0,Europe/Paris,1
1JE23,24624,Jean XXIII,47.448607,-0.5629320000000001,0,Europe/Paris,1
PRTLAUNA,20548,Port Launay,47.520718,-0.521638,0,Europe/Paris,0
FOUDON-E,375171,Foudon,47.492273,-0.42521,0,Europe/Paris,0
HARENC-E,498256,Harenchères,47.448572,-0.6159790000000001,0,Europe/Paris,0
GRANDM-E,12485,Grandmont,47.486947,-0.5879920000000001,0,Europe/Paris,1
HDVSUB,159454,Hôtel de Ville,47.471981,-0.5463100000000001,0,Europe/Paris,1
BOSQUE-E,9680,Bosquet,47.409779,-0.524831,0,Europe/Paris,0
WJMOU,26583,Jean Moulin,47.490693,-0.5522120000000001,0,Europe/Paris,1
LEMERCIE,15271,Lemercier,47.498671,-0.5226510000000001,0,Europe/Paris,0
ALDUNA-E,,Allonneau-Dunant,47.482346,-0.5266970000000001,0,Europe/Paris,1
RTEDANGE,6743,Route d'Angers,47.425501,-0.5565210000000002,0,Europe/Paris,1
BERAUD-E,239457,Les Béraudières,47.504719,-0.440294,0,Europe/Paris,1
PYRAM2-E,46871,Pyramide,47.440815,-0.4885180000000001,0,Europe/Paris,1
FRANVILL,15918,François Villon,47.433724,-0.5231510000000001,0,Europe/Paris,1
OCEANBEN,824455,Bennefray,47.519897,-0.438815,0,Europe/Paris,1
PARCEXPO,12773,Parc Expo,47.496892,-0.4941570000000001,0,Europe/Paris,1
GDMOTT-E,431561,Grand Mottay,47.575729,-0.4775080000000001,0,Europe/Paris,0
RTINAR-E,273,Roche Tinard,47.496041,-0.402326,0,Europe/Paris,0
BEAUM-E,3588,Beaumanoir,47.451305,-0.5107250000000001,0,Europe/Paris,1
RMOINE-E,32116,Roche aux Moines,47.39389,-0.6459070000000001,0,Europe/Paris,0
LALANDE,30783,Lande,47.56229,-0.5854390000000002,0,Europe/Paris,0
HAUCHA-E,718288,Hautes Chapelles,47.475738,-0.380893,0,Europe/Paris,1
SEPSON-E,26591,7 Sonnettes,47.485737,-0.5151470000000001,0,Europe/Paris,1
GRANMA-E,605765,Grand Maison,47.546145,-0.4785450000000001,0,Europe/Paris,0
MIRABEAU,9907,Mirabeau,47.460082,-0.5503220000000001,0,Europe/Paris,1
1CONS,,Conservatoire,47.471389,-0.5381520000000001,0,Europe/Paris,1
LIZE,14789,Lizé,47.486849,-0.5731630000000001,0,Europe/Paris,1
1HOPA,24731,CHU-Hôpital,47.481385,-0.5541580000000002,0,Europe/Paris,1
GDPRESSO,39547,Grand Pressoir,47.399434,-0.527715,0,Europe/Paris,1
MOLINE-E,25255,Molinerie,47.52141,-0.6667260000000002,0,Europe/Paris,0
CHAERIGN,7264,Château Érigné,47.406476,-0.5257530000000001,0,Europe/Paris,0
CHABOLA.,973195,Chabolais,47.501229,-0.5074310000000001,0,Europe/Paris,1
LAGRANGE,26550,La Grange,47.503282,-0.6324640000000001,0,Europe/Paris,0
TARTELUS,653022,Tartelusse,47.558722,-0.437693,0,Europe/Paris,0
LORTIER,323427,L'Ortier,47.571415,-0.42656,0,Europe/Paris,0
LEVESQUE,29223,Levesque,47.402223,-0.5336710000000001,0,Europe/Paris,1
IMTEC,27425,Bouzinac,47.503319,-0.5097290000000001,0,Europe/Paris,1
LIZE-E,2010,Lizé,47.486875,-0.5729830000000001,0,Europe/Paris,1
CRETAU-E,747849,Crétaudière,47.47555,-0.366299,0,Europe/Paris,0
COUPERIN,,Couperin,47.468955,-0.5271970000000001,0,Europe/Paris,1
JUSTIC-E,4918,Justices,47.453331,-0.5262720000000001,0,Europe/Paris,1
COTTAG-E,5184,Cottage,47.494589,-0.5151340000000001,0,Europe/Paris,1
BIAIS-E,841213,Biais,47.584779,-0.5394340000000001,0,Europe/Paris,0
CCHEMI-E,30919,Croix de Cheminée,47.467526,-0.5028740000000002,0,Europe/Paris,0
ORGEM2-E,29706,Orgemont,47.447803,-0.5422070000000001,0,Europe/Paris,1
1BASC,4827,Bascule,47.508686,-0.591659,0,Europe/Paris,1
FMEDECIN,10330,Fac de Médecine,47.48718,-0.5522850000000001,0,Europe/Paris,1
CORMI-E,8668,Cormiers,47.458047,-0.5153830000000001,0,Europe/Paris,1
AARDBU-E,,Avrillé - Ardenne,47.512466,-0.5964020000000001,0,Europe/Paris,1
CROISE-E,29354,Croisette,47.450963,-0.6004320000000001,0,Europe/Paris,1
FRAYON-E,456117,Frayon,47.46193,-0.7096540000000001,0,Europe/Paris,1
GALILEE,17363,Galilée,47.456345,-0.6672390000000001,0,Europe/Paris,0
2BRIS,,Brisepotière,47.478503,-0.5282300000000001,0,Europe/Paris,1
DARWIN-E,12749,Darwin,47.474255,-0.60523,0,Europe/Paris,0
GUINEZ-E,13857,Guinezert,47.461784,-0.6310820000000001,0,Europe/Paris,0
VERIGNE,12319,Vérigné,47.588269,-0.4936780000000001,0,Europe/Paris,0
ESEO-E,561593,ESEO,47.492227,-0.5516020000000001,0,Europe/Paris,1
MILLOT.,4218,Saumuroise,47.457313,-0.5325010000000001,0,Europe/Paris,1
DUREL1-E,749082,Durellerie Carrée,47.428923,-0.6413670000000001,0,Europe/Paris,0
BOIFOU-E,456097,Bois du Fouilloux,47.436268,-0.7002300000000001,0,Europe/Paris,1
VALDEMAI,31960,Val de Maine,47.4431185,-0.6125722000000001,0,Europe/Paris,1
BARBOTER,24521,Barboterie,47.400469,-0.5247690000000002,0,Europe/Paris,1
BVALLE-E,29950,Basses Vallées,47.579055,-0.4996980000000001,0,Europe/Paris,0
BESNARDI,96684,Besnardières,47.479947,-0.5441720000000001,0,Europe/Paris,0
LESLAN-E,8170,Robinières,47.470947,-0.6970570000000001,0,Europe/Paris,0
BAUNCE-E,928925,Bauné Centre,47.499368,-0.318324,0,Europe/Paris,0
DESJARDI,18446,Desjardins,47.477948,-0.5302750000000001,0,Europe/Paris,1
WTBO-E,30166,Terra Botanica,47.494206,-0.5750960000000001,0,Europe/Paris,1
HAUCOU-E,652182,Haut Coudray,47.530522,-0.624129,0,Europe/Paris,1
1BROY,32629,Bois du Roy,47.499605,-0.5831590000000001,0,Europe/Paris,1
PONTNOIR,14304,Pont Noir,47.46384,-0.5628930000000001,0,Europe/Paris,1
LORETTE,7966,Lorette,47.451326,-0.5480290000000001,0,Europe/Paris,1
CEEQUEST,14512,Centre Équestre,47.45958,-0.4847050000000001,0,Europe/Paris,1
MORLON-E,730975,Morlong,47.441603,-0.4923600000000001,0,Europe/Paris,0
LAPOINTE,16943,La Pointe,47.410287,-0.6198390000000001,0,Europe/Paris,1
CORNCROI,650527,Croix Verte,47.474177,-0.35473,0,Europe/Paris,0
BOISDA-E,586590,Bois des Dames,47.566143,-0.6779700000000001,0,Europe/Paris,1
QUAIsubW,917275,Le Quai,47.472595,-0.5664940000000001,0,Europe/Paris,1
CHOUTE-E,22740,Chouteau,47.446118,-0.4967040000000001,0,Europe/Paris,1
LEDENIER,6046,Maison du Lac,47.466007,-0.5989000000000001,0,Europe/Paris,1
THULEAU,17278,Thuleau,47.476489,-0.5283900000000001,0,Europe/Paris,1
SMATOF-E,634987,St-Mathurin Mairie,47.409445,-0.322172,0,Europe/Paris,0
ABI-E,931,Avicenne,47.481266,-0.6888690000000001,0,Europe/Paris,0
GRANCLOS,51638,Grand Clos,47.479709,-0.4136310000000001,0,Europe/Paris,0
CIOUEST,16897,Cimetière de l'Ouest,47.478481,-0.5696840000000001,0,Europe/Paris,1
GRANDC-E,85459,Grand Claye,47.387094,-0.5384380000000001,0,Europe/Paris,0
LAJANV-E,31442,Janvrie,47.504213,-0.6999370000000001,0,Europe/Paris,0
MENA-E,6305,Ménard,47.445717,-0.4936860000000001,0,Europe/Paris,1
ROCHEF-E,13000,La Rochefoucauld,47.479428,-0.5567320000000001,0,Europe/Paris,1
2HARA,14426,Foch-Haras,47.466749,-0.5525670000000001,0,Europe/Paris,1
TURMIN-E,393447,Turminière,47.56669,-0.5457490000000002,0,Europe/Paris,0
2BMAI,28864,Berges de Maine,47.479441,-0.5493700000000001,0,Europe/Paris,1
MLYAUT-E,22959,Maréchal Lyautey,47.491833,-0.5837370000000001,0,Europe/Paris,1
1ANRO,3935,Roseraie,47.443849,-0.5538860000000001,0,Europe/Paris,1
SECUSO-E,14711,Sécurité Sociale,47.468992,-0.5401000000000001,0,Europe/Paris,1
POLE49,573557,Pôle 49,47.489,-0.4912260000000001,0,Europe/Paris,1
DELAUN-E,,Delaune,47.500741,-0.5895730000000001,0,Europe/Paris,0
MONP23-E,6511,Monplaisir,47.489893,-0.5268830000000001,0,Europe/Paris,1
OLIVER-E,28837,L'Oliveraie,47.427336,-0.7126620000000001,0,Europe/Paris,0
ROUAIR-E,20788,Rouairie,47.475505,-0.6389020000000001,0,Europe/Paris,1
PATTON-E,9022,Patton,47.473564,-0.5893460000000001,0,Europe/Paris,1
2HDVA,184082,Hôtel de Ville,47.47166,-0.5466690000000001,0,Europe/Paris,1
CORNMAIR,544320,Corné Mairie,47.470999,-0.350606,0,Europe/Paris,0
MURSHV-E,30163,Murs-Érigné Hôtel de Ville,47.401835,-0.5370600000000001,0,Europe/Paris,1
PTANJOU,24470,Croisée,47.458892,-0.6681720000000001,0,Europe/Paris,0
2AARD,22259,Avrillé - Ardenne,47.511546,-0.5959310000000001,0,Europe/Paris,1
GENTRIC,45617,Gentric,47.447382,-0.4857160000000001,0,Europe/Paris,0
CRBEAU,21760,Croix de Beauvais,47.611882,-0.5853230000000001,0,Europe/Paris,0
VANRIE,23633,La Venrie,47.421245,-0.5699880000000001,0,Europe/Paris,1
MORELI-E,6659,Morellerie,47.451671,-0.5453340000000001,0,Europe/Paris,1
DELATTAS,27760,De Lattre,47.453364,-0.5412000000000001,0,Europe/Paris,1
GRANDPIN,21061,Grand Pin,47.473291,-0.6319530000000001,0,Europe/Paris,1
GRANMAIS,936827,Grand Maison,47.546108,-0.4782740000000001,0,Europe/Paris,0
POMANJ-E,19679,Pomanjou,47.500202,-0.5207079999999999,0,Europe/Paris,0
STLEONA.,7908,St-Léonard,47.45977,-0.5210710000000001,0,Europe/Paris,1
CEZAN-E,16647,Cézanne,47.469635,-0.4919360000000001,0,Europe/Paris,1
STSYL-AR,397,Carreaux,47.512716,-0.4710420000000001,0,Europe/Paris,0
PORTSG-E,9108,Le Port,47.421563,-0.5739919999999999,0,Europe/Paris,1
LOIRE-E,700127,Loire,47.417791,-0.5234420000000001,0,Europe/Paris,1
CERFEUIL,932156,Cerfeuil,47.47774,-0.6359000000000001,0,Europe/Paris,1
2LGAR,11515,Les Gares,47.464494,-0.5553500000000001,0,Europe/Paris,1
2EURO,,Europe,47.486624,-0.5271590000000002,0,Europe/Paris,1
MARAIS,969560,Marais,47.450034,-0.5043860000000001,0,Europe/Paris,1
LEVRAUDE,,Levrauderies,47.466678,-0.4686380000000001,0,Europe/Paris,0
GUILLEB.,13455,Guillebotte,47.437417,-0.5137,0,Europe/Paris,1
I.U.T.,598651,IUT,47.480263,-0.6024720000000001,0,Europe/Paris,1
DURVIL-E,22678,Dumont d'Urville,47.445056,-0.5572350000000001,0,Europe/Paris,1
CLEMEG-E,24799,St-Clément Église,47.524854,-0.7452170000000001,0,Europe/Paris,0
BICHO.-E,991,Bichon,47.4793,-0.5646679999999999,0,Europe/Paris,1
STRAS2-E,23061,Strasbourg,47.457138,-0.5543220000000001,0,Europe/Paris,1
CITRON-E,4467,Citronnelle,47.479321,-0.6337460000000001,0,Europe/Paris,1
LABABEAU,695120,La Barre,47.473546,-0.5996540000000001,0,Europe/Paris,0
CHANTR-E,,Chanterie,47.480145,-0.4935470000000001,0,Europe/Paris,1
BACHEM-E,157642,Bas Chemin,47.424905,-0.3842690000000001,0,Europe/Paris,0
BMOTTE-E,11002,Belle Motte,47.530981,-0.5165240000000001,0,Europe/Paris,0
PALLUAU,227710,Palluau,47.425504,-0.335457,0,Europe/Paris,0
REVERI-E,13109,Rêveries,47.482106,-0.5778550000000001,0,Europe/Paris,1
GILLIER,4265,Gillier,47.475051,-0.5258880000000001,0,Europe/Paris,1
GRIMOREL,7975,Grimorelle,47.529494,-0.5073070000000001,0,Europe/Paris,0
BANCSTMA,20610,Banchais,47.486004,-0.5123750000000001,0,Europe/Paris,0
GARECO-E,23799,Gare d'Écouflant,47.503879,-0.5197120000000001,0,Europe/Paris,0
CHENERON,980954,Chêne Rond,47.39594,-0.5364200000000001,0,Europe/Paris,0
ROYALE-E,437159,Royale,47.4716,-0.34092,0,Europe/Paris,1
ESPACE5A,8609,Espace Anjou,47.46739,-0.5203260000000001,0,Europe/Paris,1
FRANCAIS,26601,Françaiserie,47.520938,-0.4657690000000001,0,Europe/Paris,1
EMPIRE,15565,Empiré,47.423122,-0.5928350000000001,0,Europe/Paris,0
ROUSSIER,4742,Roussière,47.574652,-0.6506729999999999,0,Europe/Paris,0
SAECOPRI,591978,Savennières École publique,47.383295,-0.6558250000000001,0,Europe/Paris,0
BOURG-E,14979,Bourg,47.590757,-0.5552170000000001,0,Europe/Paris,0
FFAURE,28159,Félix Faure,47.48566,-0.5473070000000001,0,Europe/Paris,0
GDPERIGN,13901,Grand Périgné,47.473809,-0.6146640000000001,0,Europe/Paris,1
GASNIE-E,30059,Gasnier,47.485229,-0.5716750000000002,0,Europe/Paris,1
WTBOT,45969,Terra Botanica,47.494083,-0.5747160000000001,0,Europe/Paris,1
VALOR,30790,Val d'Or,47.484669,-0.5840880000000001,0,Europe/Paris,1
MEUNIERS,262219,Meuniers,47.495143,-0.432133,0,Europe/Paris,1
PIGNONIE,26672,Pignonière,47.487289,-0.4982630000000001,0,Europe/Paris,1
CARREA-E,19826,Carreaux,47.512066,-0.4714170000000001,0,Europe/Paris,1
BRAI8MAI,789925,Place du 8 Mai,47.446118,-0.412392,0,Europe/Paris,0
JUINGER,694542,Juingères,47.499514,-0.412828,0,Europe/Paris,1
CASERNE,331307,Caserne,47.470251,-0.5148980000000001,0,Europe/Paris,1
SAULAI-E,679503,Saulais,47.47016,-0.4617850000000001,0,Europe/Paris,0
LABARR-E,24553,La Barre,47.473282,-0.5990820000000001,0,Europe/Paris,1
ZOLA-E,310986,Zola,47.528977,-0.6109260000000001,0,Europe/Paris,1
BUISSON,3856,Buisson,47.442039,-0.4846330000000001,0,Europe/Paris,1
POUIL-AR,666530,Pouillé,47.432846,-0.5321800000000001,0,Europe/Paris,1
SAJACQ-E,10642,St-Jacques,47.473726,-0.5726160000000001,0,Europe/Paris,1
BEAUCOUZ,28687,Haute Roche,47.470313,-0.6251679999999999,0,Europe/Paris,0
PLACENEY,18833,Place Ney,47.478347,-0.5435340000000001,0,Europe/Paris,1
PCOUBERT,27982,Coubertin,47.462415,-0.5324680000000001,0,Europe/Paris,1
MENARD,20226,Ménard,47.445845,-0.4938670000000001,0,Europe/Paris,0
FOUQUETT,1497,Fouquetterie,47.467921,-0.7051790000000001,0,Europe/Paris,0
HTEBRUY,901720,Hautes Bruyères,47.59125,-0.4521290000000001,0,Europe/Paris,0
TERNIERE,304,Ternière,47.505698,-0.5926350000000001,0,Europe/Paris,1
PEPINIER,10185,Trélazé Gare,47.452448,-0.4700170000000001,0,Europe/Paris,1
PTELANDE,671903,Petite Lande,47.451239,-0.431977,0,Europe/Paris,0
DLOGISNO,,Logis Notre-Dame -reporté-,47.498174,-0.426385,0,Europe/Paris,0
PTGRCH-E,24018,Petits Grandchamps,47.464034,-0.7143410000000001,0,Europe/Paris,0
NDAMELAC,23915,Notre Dame du Lac,47.47964,-0.5898139999999999,0,Europe/Paris,1
ESATBE-E,611355,ESAT Béjonnières,47.481344,-0.5101960000000001,0,Europe/Paris,0
BOIRES,904270,Les Boires,47.413857,-0.2960420000000001,0,Europe/Paris,0
MALNOU-E,863688,Malnoue,47.369009,-0.5171559999999999,0,Europe/Paris,0
GABORIAU,420094,Gaboriau,47.562738,-0.6752720000000001,0,Europe/Paris,1
BOISPOUI,393328,Bois de Pouillé,47.423282,-0.6876170000000001,0,Europe/Paris,0
BICHON,27019,Bichon,47.47873,-0.5641929999999999,0,Europe/Paris,1
PRUILL-E,430244,Pruillé Centre,47.577058,-0.6627550000000001,0,Europe/Paris,0
BBCAMTEC,,Belle-Beille Campus,47.478583,-0.6060580000000001,0,Europe/Paris,1
MAISNEUV,475623,Maison Neuve,47.454514,-0.428178,0,Europe/Paris,0
ISORET,25741,Isoret,47.474718,-0.5208320000000001,0,Europe/Paris,1
ACADEMIE,913399,Académie,47.467432,-0.5591450000000001,0,Europe/Paris,0
ECHATS-E,30592,Échats,47.481018,-0.6319170000000001,0,Europe/Paris,1
CIOUES-E,18204,Cimetière de l'Ouest,47.479344,-0.5707470000000001,0,Europe/Paris,1
GRUICHE,306120,Gruiche,47.555045,-0.450359,0,Europe/Paris,0
BAHONN-E,1159,Bahonneau,47.453429,-0.4829500000000001,0,Europe/Paris,1
MONTREJO,,Montrejeau,47.468047,-0.5212900000000001,0,Europe/Paris,0
LAVAL2-E,231673,La Vallée,47.49358,-0.389133,0,Europe/Paris,1
AAQUITN,,Aliénor d'Aquitaine,47.462897,-0.6150490000000001,0,Europe/Paris,1
BLANDEAU,7587,Blandeau,47.457523,-0.5433120000000001,0,Europe/Paris,1
DESER-E,60376,De Serre,47.477763,-0.6147650000000001,0,Europe/Paris,0
PETGUI-E,993424,Petit Guichard,47.526101,-0.4789770000000001,0,Europe/Paris,0
EPIRE,27409,Épiré,47.398581,-0.6346150000000002,0,Europe/Paris,0
MORLONG,906258,Morlong,47.441833,-0.4926490000000001,0,Europe/Paris,1
SOULECOL,51293,Soulaines École,47.36587,-0.5215550000000001,0,Europe/Paris,0
PARCGARE,1681,Garenne,47.47834,-0.5766530000000001,0,Europe/Paris,1
PELLEG-E,243747,Pellouailles Église,47.522438,-0.443502,0,Europe/Paris,0
VERDUN,31885,Verdun,47.468191,-0.4932420000000001,0,Europe/Paris,1
MEMMAIR,4208,Membrolle Mairie,47.560825,-0.6730699999999999,0,Europe/Paris,0
NOUELLE,27066,Nouelle,47.544926,-0.6697100000000001,0,Europe/Paris,1
MENDESFR,10353,Mendès France,47.472555,-0.5462390000000001,0,Europe/Paris,1
SAUBIN,523612,St-Aubin La Salle,47.489312,-0.5040800000000001,0,Europe/Paris,1
LAGLOU-E,32242,Gloutière,47.508178,-0.643696,0,Europe/Paris,0
GOURGEA,358087,Gourgeauderies,47.45119,-0.6448290000000001,0,Europe/Paris,1
MARMITIE,28460,Marmitière,47.466682,-0.4905570000000001,0,Europe/Paris,0
MON1GA-E,1148,Mongazon,47.460864,-0.5284430000000001,0,Europe/Paris,1
RUAU,279260,Le Ruau,47.42432,-0.3987010000000001,0,Europe/Paris,0
RENOIR,26525,Auguste Renoir,47.536082,-0.6185770000000002,0,Europe/Paris,1
HERMIT32,1981,L'Hermitage,47.584608,-0.417577,0,Europe/Paris,0
LEOLAGRA,5291,Léo Lagrange,47.447837,-0.5099330000000001,0,Europe/Paris,1
LAGLOUTI,1095,Gloutière,47.509386,-0.6462200000000001,0,Europe/Paris,0
2STSE,175339,St-Serge Université,47.47625,-0.5506880000000001,0,Europe/Paris,1
GRANCLAY,748121,Grand Claye,47.38707,-0.5383530000000001,0,Europe/Paris,0
SOULBEAU,584958,Beaurepaire Soulaire,47.556439,-0.5555750000000002,0,Europe/Paris,0
FONTAI-E,26615,La Fontaine,47.569663,-0.5903490000000001,0,Europe/Paris,0
AUBEPI-E,9385,Aubépine,47.461562,-0.4958990000000001,0,Europe/Paris,1
DEBUSSY,32335,Debussy,47.48831,-0.5161130000000002,0,Europe/Paris,1
BALAND-E,30198,Basse Lande,47.50546,-0.5953490000000001,0,Europe/Paris,1
OREEBOIS,78210,L'Orée des Bois,47.508384,-0.378844,0,Europe/Paris,0
CFPA,13734,AFPA,47.471545,-0.5233500000000001,0,Europe/Paris,1
LESSARTS,25628,Les Essarts,47.469086,-0.736728,0,Europe/Paris,0
CLOUET-E,6874,Clouet,47.480639,-0.5663620000000001,0,Europe/Paris,1
BARBOT-E,1092,Barboterie,47.400873,-0.5251670000000001,0,Europe/Paris,1
BOUGO.-E,10871,Bourgonnier,47.461608,-0.5411950000000001,0,Europe/Paris,1
HAUTPR-E,52,Haut Pressoir,47.453158,-0.5380990000000001,0,Europe/Paris,1
MONPLA23,936893,Monplaisir,47.489698,-0.5271100000000001,0,Europe/Paris,1
PLATEF-E,28725,Plateau Fleuri,47.529925,-0.5977170000000001,0,Europe/Paris,1
PORTSG,30148,Le Port,47.421506,-0.5736140000000001,0,Europe/Paris,1
HULLETER,25810,Hulleteries,47.465353,-0.7209320000000001,0,Europe/Paris,0
MOLINERI,8190,Molinerie,47.521471,-0.6668900000000001,0,Europe/Paris,0
ERIGNE-E,31182,Érigné,47.400598,-0.5305110000000001,0,Europe/Paris,1
LORETT-E,9272,Lorette,47.451214,-0.5475960000000001,0,Europe/Paris,1
VEILLE-E,184735,Veillerot,47.523609,-0.4729960000000001,0,Europe/Paris,0
ANDAMAIR,383609,Andard Mairie,47.456535,-0.39818,0,Europe/Paris,0
VERIGN-E,24724,Vérigné,47.588212,-0.4935070000000001,0,Europe/Paris,0
JEBOUT-E,12854,Jean Boutton,47.438891,-0.5072440000000001,0,Europe/Paris,1
GRIMOR-E,24527,Grimorelle,47.529422,-0.5072990000000001,0,Europe/Paris,0
JUIGN-E,15158,Juigné,47.539135,-0.616141,0,Europe/Paris,1
VIELLMAI,21047,Vieille Maine,47.529842,-0.5278210000000001,0,Europe/Paris,1
CHANZY-E,32089,Chanzy,47.460053,-0.5576650000000001,0,Europe/Paris,1
LALAN-E,8374,Lande,47.562431,-0.5853110000000001,0,Europe/Paris,0
MIRABE-E,9418,Mirabeau,47.459474,-0.5488390000000001,0,Europe/Paris,1
DIONNEAU,28948,Dionneau,47.438788,-0.5300020000000001,0,Europe/Paris,1
OISEA-E,,Oiseaux,47.501826,-0.5858960000000001,0,Europe/Paris,0
VERDUN-E,32668,Verdun,47.468482,-0.4927960000000001,0,Europe/Paris,1
LABUIS-E,24945,La Buissaie,47.396155,-0.5523760000000001,0,Europe/Paris,1
WIGAN-E,16501,Wigan,47.459477,-0.6081280000000001,0,Europe/Paris,1
CARRF5B,9318,Carrefour St-Serge,47.488084,-0.5425110000000001,0,Europe/Paris,1
MONNI-E,,Monnier,47.403978,-0.5268510000000001,0,Europe/Paris,0
LECORBUS,12622,Le Corbusier,47.484404,-0.6317860000000001,0,Europe/Paris,1
BRAICO-E,837119,Croix Combeau,47.453695,-0.408351,0,Europe/Paris,0
DAGUENET,,Daguenet,47.474811,-0.5284440000000001,0,Europe/Paris,1
CLINIQ-E,27786,Clinique St-Didier,47.485338,-0.5874270000000001,0,Europe/Paris,1
MAI4VEN,30964,Mail des 4 Vents,47.531792,-0.5285540000000001,0,Europe/Paris,1
VENSCO,863100,Venaiserie Collège,47.471673,-0.4862870000000001,0,Europe/Paris,0
SOUSTA-E,916505,Soucelles Stade,47.57002,-0.421902,0,Europe/Paris,0
DELESCL,27348,Delescluze,47.466083,-0.6048920000000001,0,Europe/Paris,1
CHATEN-E,2767,Châtenay,47.482569,-0.5211800000000001,0,Europe/Paris,1
LACACC-E,16598,Maison de L'Environnement,47.46405,-0.5943290000000001,0,Europe/Paris,1
LAEN-E,66371,Laennec,47.53943,-0.6186420000000001,0,Europe/Paris,1
MALBOI-E,576278,Malboire,47.481774,-0.413922,0,Europe/Paris,0
PARCIN-E,530720,L'Épervière,47.507072,-0.5088370000000001,0,Europe/Paris,0
PROME-E,27692,Promeniers,47.477386,-0.6313550000000001,0,Europe/Paris,1
PLATFLEU,14518,Plateau Fleuri,47.529687,-0.5980730000000001,0,Europe/Paris,1
LA-BOI-E,575897,La Boissière,47.504706,-0.6001750000000001,0,Europe/Paris,1
BERAUDIE,459554,Les Béraudières,47.504779,-0.440341,0,Europe/Paris,1
NOYAU,40211,Noyau,47.51263,-0.36556,0,Europe/Paris,0
LABOETTE,274792,La Boette,47.420297,-0.4460450000000001,0,Europe/Paris,1
MILLOT-E,2926,Saumuroise,47.456802,-0.5319040000000002,0,Europe/Paris,1
MUSSET,21453,Musset,47.473724,-0.5397470000000001,0,Europe/Paris,1
RGILARDI,390494,Gilardières,47.385927,-0.5646870000000001,0,Europe/Paris,0
LAURIE-E,371317,L'aurière,47.567796,-0.5792680000000001,0,Europe/Paris,1
SAVARY,20832,Savary,47.47354,-0.5427360000000001,0,Europe/Paris,1
CLEMENCE,,Clémenceau,47.476613,-0.5671900000000001,0,Europe/Paris,1
SORGES,27536,Sorges,47.43187,-0.4852210000000001,0,Europe/Paris,0
CMONGAZO,242614,Chemin de Mongazon,47.484567,-0.4850480000000001,0,Europe/Paris,1
DESJAR-E,8104,Desjardins,47.477862,-0.530132,0,Europe/Paris,1
ROCEPI-E,17525,Roc Épine,47.480265,-0.5758070000000001,0,Europe/Paris,1
VANRIE-E,13574,La Venrie,47.421438,-0.5704850000000001,0,Europe/Paris,1
BOULAI-E,566656,Boulaie,47.494277,-0.40425,0,Europe/Paris,0
CHAPE-E,822070,Chapelles,47.468641,-0.382972,0,Europe/Paris,0
JOUVET,454522,Jouvet,47.558573,-0.670089,0,Europe/Paris,1
PELLER-E,13867,Pellerinière,47.460197,-0.4873900000000001,0,Europe/Paris,1
GENDRI-E,787054,Gendrie,47.498822,-0.324752,0,Europe/Paris,0
JARDF-E,46662,Jardins Familiaux,47.485579,-0.5081059999999999,0,Europe/Paris,1
CASERN-E,326343,Caserne,47.470421,-0.5166320000000001,0,Europe/Paris,1
MALAQU-E,27851,Malaquais,47.444013,-0.4902410000000001,0,Europe/Paris,1
DOMVATER,266184,Domaine du Val,47.536643,-0.6247900000000001,0,Europe/Paris,1
FREMUR-E,19151,Frémur,47.458583,-0.5580889999999999,0,Europe/Paris,1
2JVIL,4486,Jean Vilar,47.44488,-0.5622549999999999,0,Europe/Paris,1
LEVESQ-E,29876,Levesque,47.402203,-0.5344560000000002,0,Europe/Paris,1
ROFOUL-E,627992,Roche Foulques,47.575918,-0.4553650000000001,0,Europe/Paris,0
ACAD-PLA,33737,Académie,47.46843,-0.5586860000000001,0,Europe/Paris,0
GPOMPI-E,10339,Pompidou,47.492074,-0.5922300000000001,0,Europe/Paris,0
1DOUT,,Doutre,47.47414,-0.5605780000000001,0,Europe/Paris,1
ESP-LON,16227,Espace Longuenée,47.540102,-0.6729930000000001,0,Europe/Paris,1
CITEUN-E,27788,Cité Universitaire,47.478676,-0.5981760000000002,0,Europe/Paris,1
DIX8JU-E,22297,18-juin,47.529605,-0.6180410000000001,0,Europe/Paris,0
CAMPJU-E,996,Juigné Camping,47.537139,-0.6168490000000001,0,Europe/Paris,0
STAUBI-E,31700,Foch-St-Aubin,47.468146,-0.5510440000000001,0,Europe/Paris,1
AAMIPI,32237,AMIPI,47.463699,-0.6266260000000001,0,Europe/Paris,0
LAMAIL-E,505607,Maillée,47.485132,-0.391329,0,Europe/Paris,0
BEHUARD,509673,Béhuard Bourg,47.378789,-0.6448850000000002,0,Europe/Paris,0
2PMAY,4961,Plateau Mayenne,47.49576,-0.5799400000000001,0,Europe/Paris,1
FROMIOUX,159425,Fromioux,47.509048,-0.7149960000000001,0,Europe/Paris,0
PETLANDE,11977,Petite Lande,47.550843,-0.5802250000000001,0,Europe/Paris,0
VALEO-E,6240,Valéo,47.501925,-0.5170470000000001,0,Europe/Paris,1
GARVIBRI,30863,Gare Vieux Briollay,47.573108,-0.4828010000000001,0,Europe/Paris,0
CIAVRI-E,25684,Avrillé Cimetière,47.506563,-0.5904180000000001,0,Europe/Paris,1
GERICA-E,2160,Géricault,47.459861,-0.5236810000000001,0,Europe/Paris,1
JUINDRIE,103281,Juindries,47.50609,-0.382506,0,Europe/Paris,0
OCEANNOR,613287,ZA L'Océane,47.516128,-0.443198,0,Europe/Paris,1
COLOMB,74257,Colombier,47.482464,-0.4905800000000001,0,Europe/Paris,1
BAUDON-E,732813,Baudon,47.539292,-0.5793890000000002,0,Europe/Paris,0
FRATE-E,71441,Fraternité,47.490839,-0.5616830000000002,0,Europe/Paris,1
GRANCL-E,627562,Grand Clos,47.479806,-0.413527,0,Europe/Paris,0
QVENTS-E,15898,Quatre Vents,47.497096,-0.420865,0,Europe/Paris,0
MAREJU-E,17469,Maréchal Juin,47.449747,-0.568123,0,Europe/Paris,1
GOURONNI,19767,Gouronnières,47.482974,-0.5694430000000001,0,Europe/Paris,1
AUBRY,7225,Aubry,47.440983,-0.5520690000000001,0,Europe/Paris,0
AARDBUS,,Avrillé - Ardenne,47.512198,-0.5960420000000001,0,Europe/Paris,1
RONCIERE,3607,Roncières,47.435943,-0.5134760000000002,0,Europe/Paris,1
MERMOZ-E,432615,Collège Mermoz,47.451851,-0.56693,0,Europe/Paris,0
LAPLES-E,7870,La Plesse,47.499554,-0.6204520000000001,0,Europe/Paris,0
SOECPRIV,973131,École J. Bodinier,47.568286,-0.419282,0,Europe/Paris,0
GAUGUIN,168097,Paul Gauguin,47.526766,-0.4646290000000001,0,Europe/Paris,1
OISEAUX,,Oiseaux,47.501682,-0.5863220000000001,0,Europe/Paris,0
1MOLIE,,Molière,47.474077,-0.5555330000000001,0,Europe/Paris,1
DUMESNIL,4581,Dumesnil,47.473868,-0.5675640000000001,0,Europe/Paris,1
ARCADES,24569,Arcades,47.506927,-0.5168580000000002,0,Europe/Paris,0
DEUCROIX,31483,Deux-Croix,47.475081,-0.5291020000000001,0,Europe/Paris,1
PETMOT-E,675780,Petite Motte,47.575615,-0.5927970000000001,0,Europe/Paris,1
MAIL-HDV,7828,Mail,47.47108,-0.546309,0,Europe/Paris,1
ANDARESA,293715,Rezeau,47.46794,-0.378963,0,Europe/Paris,0
LESGAR-E,23118,Les Gares,47.465478,-0.5552230000000001,0,Europe/Paris,0
OCESUD-E,14976,Delage,47.513858,-0.4487670000000001,0,Europe/Paris,1
HMTREL,14635,08-mai,47.449774,-0.4655280000000001,0,Europe/Paris,0
BLANDE-E,2217,Blandeau,47.457386,-0.5432169999999999,0,Europe/Paris,1
STMART-E,1531,St-Martin Centre,47.431407,-0.7030740000000001,0,Europe/Paris,0
P-ANJO-E,32708,Petit Anjou,47.444518,-0.6146110000000001,0,Europe/Paris,0
LBALUE-E,28840,Baluères,47.37763,-0.5248510000000001,0,Europe/Paris,0
RBRIOLLA,24653,Route de Briollay,47.486404,-0.5328840000000001,0,Europe/Paris,1
RENOU-E,4188,Renou,47.437339,-0.4869280000000001,0,Europe/Paris,0
THOMAS-E,18250,Thomasserie,47.461739,-0.6252520000000001,0,Europe/Paris,1
LMARZELL,2200,Haute Marzelle,47.342922,-0.5299040000000002,0,Europe/Paris,0
BMAI-9E,11244,Berges de Maine,47.478509,-0.5489039999999999,0,Europe/Paris,1
BASCHE-E,884139,Basse Chesnaie,47.573791,-0.6774470000000001,0,Europe/Paris,0
DEUVAL-E,575510,Deux Vallées,47.568263,-0.4987450000000001,0,Europe/Paris,0
GAUTIE-E,615013,Pas Gautier,47.471712,-0.409417,0,Europe/Paris,0
JEHUEZ,13375,Jean Huez,47.530829,-0.5943920000000001,0,Europe/Paris,1
ANFRAN-E,7909,Anne Frank,47.463465,-0.5377660000000001,0,Europe/Paris,1
STSERG-E,,St-Serge Université,47.476523,-0.5510380000000001,0,Europe/Paris,1
BEURRIER,21726,Beurrière,47.497569,-0.5895410000000001,0,Europe/Paris,1
JOUVET-E,570294,Jouvet,47.558427,-0.6697160000000001,0,Europe/Paris,1
BOURSE-E,19507,Bourse,47.442536,-0.4950880000000001,0,Europe/Paris,0
GENETI-E,30451,Genetière,47.494752,-0.440998,0,Europe/Paris,1
BRASSE-E,25269,Brassens,47.494884,-0.5872350000000001,0,Europe/Paris,1
PASTEU-E,26529,Pasteur,47.467113,-0.4929690000000001,0,Europe/Paris,1
GRANBE-E,1713,Grange aux Belles,47.476709,-0.6283290000000001,0,Europe/Paris,1
CFPA-E,14322,AFPA,47.47146,-0.5228370000000001,0,Europe/Paris,1
ESTAMI-E,673452,L'Estaminet,47.56624,-0.5030620000000001,0,Europe/Paris,0
ZICOPER,389482,Copernic,47.516842,-0.6104320000000001,0,Europe/Paris,1
BUISBELL,40296,Buissons Belles,47.447964,-0.420631,0,Europe/Paris,0
BEURRI-E,23326,Beurrière,47.497355,-0.5892300000000001,0,Europe/Paris,1
FORGES,3128,Les Forges,47.386438,-0.6451650000000001,0,Europe/Paris,0
MONTAIG,11328,Montaigne,47.469571,-0.5318619999999999,0,Europe/Paris,1
ECOTIERE,28731,Écotière,47.363515,-0.5056630000000001,0,Europe/Paris,0
STLOUIS,16220,St-Louis,47.487528,-0.5866209999999999,0,Europe/Paris,0
LAREUX,31088,La Reux,47.469546,-0.5105750000000001,0,Europe/Paris,1
GALLI-E,4908,Gallieni,47.434827,-0.5245250000000001,0,Europe/Paris,1
RODIN,12656,Rodin,47.475959,-0.6256910000000001,0,Europe/Paris,1
MONNAI-E,228036,Monnaie,47.445042,-0.5124960000000001,0,Europe/Paris,0
BOHABR-E,377290,Route de Brain,47.421471,-0.3991140000000001,0,Europe/Paris,0
OCEBEN-E,651758,Bennefray,47.519894,-0.43875,0,Europe/Paris,1
CHARRUAU,994566,Charruau,47.372821,-0.5092440000000001,0,Europe/Paris,0
RAINIERE,476568,Rainière,47.578677,-0.4769150000000001,0,Europe/Paris,0
STRAS2,24345,Strasbourg,47.457304,-0.5545460000000001,0,Europe/Paris,1
MALEMBAR,753,ZI Malembardières,47.451656,-0.4734250000000001,0,Europe/Paris,0
PAEXPO16,,Parc Expo,47.496106,-0.4918350000000001,0,Europe/Paris,0
SLEZIND,16655,St-Lézin,47.450358,-0.4882250000000001,0,Europe/Paris,1
DEBEAU-E,9943,De Beauvoir,47.529041,-0.6146870000000001,0,Europe/Paris,0
RUAU-E,343146,Le Ruau,47.424247,-0.398617,0,Europe/Paris,0
ANDAMA-E,319038,Andard Mairie,47.456503,-0.3977010000000001,0,Europe/Paris,0
CHAPELLE,21227,Chapelles,47.46867,-0.3828790000000001,0,Europe/Paris,0
RTEPARIS,17574,Route de Paris,47.489597,-0.5081030000000001,0,Europe/Paris,1
CRBLANCH,20575,Croix Blanche,47.480857,-0.5171780000000001,0,Europe/Paris,1
CARCITR,784,Carrefour St-Serge,47.487174,-0.5436850000000001,0,Europe/Paris,1
PISCJU-E,6211,Piscine C. Muffat,47.534191,-0.6165220000000001,0,Europe/Paris,1
GDMAIN-E,15461,Grand Maine,47.467398,-0.5935800000000001,0,Europe/Paris,1
JERUSA-E,30745,Jérusalem,47.473541,-0.5296990000000001,0,Europe/Paris,1
WJMO-E,72745,Jean Moulin,47.490708,-0.5518350000000001,0,Europe/Paris,1
TANCE-E,25473,Tancellerie,47.516171,-0.6635890000000001,0,Europe/Paris,0
HOSGEM-E,6304,Ste-Gemmes Hôpital,47.422965,-0.5608150000000001,0,Europe/Paris,1
BEAUSS-E,548181,Beaussier,47.47642,-0.5995380000000001,0,Europe/Paris,1
LOGINODA,778945,Logis Notre-Dame,47.498387,-0.428944,0,Europe/Paris,1
STLAURE,12804,Stade Raymond Kopa,47.461354,-0.5311370000000001,0,Europe/Paris,1
LINOVENT,31038,Lino Ventura,47.447568,-0.5291450000000001,0,Europe/Paris,1
RABELAI,819,Rabelais,47.46175,-0.5468900000000001,0,Europe/Paris,1
DELACR-E,3905,Delacroix,47.454898,-0.5288330000000001,0,Europe/Paris,1
BOISHO-E,277487,Bois de l'Hôpital,47.470435,-0.4592770000000001,0,Europe/Paris,0
PAPERI-E,26837,Paperie,47.468462,-0.5065269999999999,0,Europe/Paris,1
PETPORT,5677,Petit Port,47.425873,-0.6095220000000001,0,Europe/Paris,1
1VERN,25220,Verneau,47.492424,-0.5671079999999999,0,Europe/Paris,1
CHANSONN,654132,Route de la Chansonnière,47.583595,-0.4834350000000001,0,Europe/Paris,0
CHEVRIER,7016,Chevrière,47.423908,-0.6091000000000001,0,Europe/Paris,0
ATSVILLE,329831,École Goganes,47.559478,-0.424182,0,Europe/Paris,0
2RALL,,Ralliement,47.471223,-0.5516010000000001,0,Europe/Paris,1
CLODOREA,31214,Clos Doreau,47.496241,-0.425249,0,Europe/Paris,0
CRETAUDI,809228,Crétaudière,47.475625,-0.366224,0,Europe/Paris,0
LCHATA-E,28519,Châtaigneraie,47.441224,-0.6077680000000001,0,Europe/Paris,1
DUBELL-E,3812,Du Bellay,47.492176,-0.5132430000000001,0,Europe/Paris,0
CITRONNL,1586,Citronnelle,47.479422,-0.6340070000000001,0,Europe/Paris,1
SOULAI-E,39480,Le Tertre,47.362724,-0.5227740000000001,0,Europe/Paris,0
GATS-E,892868,Les Gâts,47.474304,-0.5171840000000001,0,Europe/Paris,1
SMATGDRU,735252,Grande Rue,47.411125,-0.333079,0,Europe/Paris,0
PATNOIRE,256905,Paul Bert,47.466327,-0.5524600000000001,0,Europe/Paris,1
CLOTEAU,466331,Cloteau,47.507383,-0.408712,0,Europe/Paris,0
SARRIG-E,9431,Les Plantes,47.502406,-0.379316,0,Europe/Paris,1
QUAIsubN,110219,Le Quai,47.472105,-0.5663870000000001,0,Europe/Paris,1
COSSE,12393,Cosse,47.438224,-0.5532150000000001,0,Europe/Paris,0
JARDFA,35425,Jardins Familiaux,47.485557,-0.5084330000000001,0,Europe/Paris,1
SOUSTADE,179678,Soucelles Stade,47.570224,-0.422138,0,Europe/Paris,0
PONTNO-E,4391,Pont Noir,47.464022,-0.5626190000000001,0,Europe/Paris,1
FARCSJ-E,463350,Farcy,47.473815,-0.5771420000000002,0,Europe/Paris,1
2BROY,31784,Bois du Roy,47.499664,-0.5830550000000001,0,Europe/Paris,1
DEGAULLE,30690,De Gaulle,47.45336,-0.4783160000000001,0,Europe/Paris,0
LORRTERM,23465,Lorraine,47.47019,-0.5476000000000001,0,Europe/Paris,1
GOURGE-E,214745,Gourgeauderies,47.451539,-0.6456610000000002,0,Europe/Paris,1
LA-BOISS,574608,La Boissière,47.50477,-0.599956,0,Europe/Paris,1
RUELLE-E,27445,Ruelles,47.437339,-0.5315540000000001,0,Europe/Paris,1
PAQUERAI,88085,Paqueraie,47.481187,-0.41009,0,Europe/Paris,0
POIREL-E,5240,Poirel,47.461522,-0.5621130000000001,0,Europe/Paris,1
DAGUEG-E,732652,Daguenière Église,47.4193,-0.436781,0,Europe/Paris,0
LECL05-E,18831,Leclerc,47.483002,-0.5757380000000001,0,Europe/Paris,1
HOUSSAY,802941,Houssaye,47.586496,-0.4570320000000001,0,Europe/Paris,0
ARTAUD,22172,Artaud,47.434046,-0.6109540000000001,0,Europe/Paris,1
DIONNE-E,9126,Dionneau,47.438786,-0.5302470000000001,0,Europe/Paris,1
BICHO2-E,357307,Bichon,47.479062,-0.5651890000000001,0,Europe/Paris,0
SAUBIN-S,213787,St-Aubin La Salle,47.489414,-0.5032010000000001,0,Europe/Paris,0
BONPLA-E,542285,Bonpland,47.514547,-0.5908850000000001,0,Europe/Paris,1
DELATR-E,25487,De Lattre,47.452337,-0.5418520000000001,0,Europe/Paris,1
BASCHEM,948490,Bas Chemin,47.425014,-0.384247,0,Europe/Paris,0
VILSANTE,17408,Village Santé,47.457561,-0.5127210000000001,0,Europe/Paris,1
AUBRY-E,48579,Aubry,47.441839,-0.5522290000000001,0,Europe/Paris,0
BACHOU-E,602037,Bachouasne,47.467774,-0.433359,0,Europe/Paris,1
DANEMA-E,5563,Danemark,47.527721,-0.5978170000000002,0,Europe/Paris,1
CITEUNIV,30394,Cité Universitaire,47.478879,-0.5978800000000001,0,Europe/Paris,1
CRFRUX,29507,Croix des Frux,47.503213,-0.6909650000000001,0,Europe/Paris,0
CAMELIAS,11696,Camélia,47.471293,-0.5189560000000001,0,Europe/Paris,1
BRGPAILL,10958,Bourg de Paille,47.474358,-0.6249400000000001,0,Europe/Paris,1
GRCARR-E,7784,Arena Loire,47.443454,-0.4782900000000001,0,Europe/Paris,1
PASTEUR,25811,Pasteur,47.466988,-0.4930650000000001,0,Europe/Paris,1
VERNUIT,2307,AquaVita,47.493361,-0.5655390000000001,0,Europe/Paris,0
STTHER-E,7404,Ste-Thérèse,47.480599,-0.5642200000000001,0,Europe/Paris,1
PERRIE-E,215108,La Perrière,47.463793,-0.408372,0,Europe/Paris,0
NOZAY-E,661345,Nozay,47.487664,-0.5319430000000001,0,Europe/Paris,1
FIEFGENT,22382,Fief Gentil,47.533317,-0.5261590000000002,0,Europe/Paris,0
CRBEAU-E,12387,Croix de Beauvais,47.612736,-0.5849400000000001,0,Europe/Paris,0
LTAC-E,242,Soulaines Centre,47.364607,-0.5250480000000001,0,Europe/Paris,0
BENE-E,27645,Béné,47.54112,-0.6094560000000001,0,Europe/Paris,1
CHESNA-E,28622,La Chesnaie,47.437021,-0.5240030000000001,0,Europe/Paris,1
PELEGLIS,27979,Pellouailles Église,47.521613,-0.444059,0,Europe/Paris,0
CHANZY,13887,Chanzy,47.460151,-0.557471,0,Europe/Paris,1
RUELLES,26825,Ruelles,47.437666,-0.5314410000000001,0,Europe/Paris,1
LESLANDE,2090,Robinières,47.471103,-0.6966530000000001,0,Europe/Paris,0
RESTLA-E,428093,Restaurant,47.457849,-0.391502,0,Europe/Paris,0
MILLARDI,28787,Millardière,47.513771,-0.4736820000000001,0,Europe/Paris,1
TRINITE,14286,Trinité,47.475221,-0.5625980000000002,0,Europe/Paris,1
FARCYSJA,74469,Farcy,47.473717,-0.57698,0,Europe/Paris,1
LICES,11754,Lices,47.467114,-0.5544890000000001,0,Europe/Paris,1
MONTCASB,13329,Mont Cassin,47.447246,-0.5693760000000001,0,Europe/Paris,1
MARMIT-E,266529,Marmitière,47.466692,-0.4907150000000001,0,Europe/Paris,0
SOULAIR,5421,Soulaire,47.577327,-0.5543040000000001,0,Europe/Paris,0
MIMOSAS,,Mimosas,47.481576,-0.5234430000000001,0,Europe/Paris,1
PYRAM10,1573,Pyramide,47.440986,-0.4901850000000001,0,Europe/Paris,0
GARD-D-E,735774,St-Sylvain Mairie,47.519795,-0.4711350000000001,0,Europe/Paris,1
CCADEA,5701,Croix Cadeau,47.519948,-0.6094530000000001,0,Europe/Paris,0
RIDERE-E,917645,Ridereau,47.478021,-0.391163,0,Europe/Paris,0
AUBERD-E,830731,Auberderie,47.537906,-0.4785340000000001,0,Europe/Paris,0
DUMESN-E,5561,Dumesnil,47.473815,-0.566934,0,Europe/Paris,1
CIMETR-E,32029,Trélazé Cimetière,47.446271,-0.4623000000000001,0,Europe/Paris,1
CHARNA-E,5036,Charnasserie,47.491866,-0.5565850000000001,0,Europe/Paris,1
BRISEP-E,3496,Brisepotière,47.479348,-0.5272530000000001,0,Europe/Paris,1
COUBERTI,6822,Jean Bouin,47.459148,-0.5329610000000001,0,Europe/Paris,1
EVENTARD,11062,Éventard,47.496874,-0.5149980000000001,0,Europe/Paris,1
PYRAM02,23017,Pyramide,47.44088,-0.4886390000000001,0,Europe/Paris,1
WFARC-E,350711,Farcy,47.473028,-0.5772350000000001,0,Europe/Paris,0
RTECHAMP,31470,Route de Champigné,47.572262,-0.5934600000000001,0,Europe/Paris,1
DOYENNE,24995,Doyenné,47.490608,-0.5325810000000001,0,Europe/Paris,1
POLIGUET,527584,Poliguet,47.494498,-0.397273,0,Europe/Paris,0
BONPLAND,204457,Bonpland,47.514589,-0.5895880000000001,0,Europe/Paris,1
AUTHIO-E,24408,Authion,47.431508,-0.5286620000000001,0,Europe/Paris,1
LENOT-E,,Le Nôtre,47.476099,-0.607369,0,Europe/Paris,1
MAETUDIA,25548,Polytech,47.480575,-0.5945920000000001,0,Europe/Paris,1
GGSAND-E,36947,George Sand,47.43334,-0.5195330000000001,0,Europe/Paris,1
VOLNEY-E,29618,Volney,47.460567,-0.5386390000000001,0,Europe/Paris,1
INRA-E,741028,INRAE,47.474733,-0.6113050000000001,0,Europe/Paris,1
CHOUTEAU,22022,Chouteau,47.446256,-0.4968560000000001,0,Europe/Paris,1
MAUPERTH,5939,Mauperthuis,47.433899,-0.4855880000000001,0,Europe/Paris,0
LACROIX,98921,La Croix,47.417821,-0.314498,0,Europe/Paris,0
LIZE05-E,27387,Lizé,47.486884,-0.5744950000000001,0,Europe/Paris,1
2BAMA,30251,Bamako,47.45211,-0.5563700000000001,0,Europe/Paris,1
WIGAN,15554,Wigan,47.459381,-0.6081380000000001,0,Europe/Paris,1
PRIEURE,18873,Prieuré,47.471893,-0.6336460000000002,0,Europe/Paris,1
GROI.2-E,590166,Groies,47.492028,-0.399523,0,Europe/Paris,0
BRAINNAR,776186,Narcé,47.448874,-0.429982,0,Europe/Paris,0
SARRMAIR,30431,Sarrigné Mairie,47.501762,-0.383259,0,Europe/Paris,1
APPENTIS,30879,Appentis,47.445485,-0.5462750000000001,0,Europe/Paris,1
VDLOIR-E,32158,Val de Loire,47.448829,-0.5134060000000001,0,Europe/Paris,1
CHEVRI-E,7832,Chevrière,47.423899,-0.6092430000000001,0,Europe/Paris,0
SCHWALBA,31127,Schwalbach,47.503777,-0.6023200000000001,0,Europe/Paris,1
MASGEM-E,29461,Ste-Gemmes Mairie,47.422881,-0.5565960000000001,0,Europe/Paris,1
BOISAB-E,2212,Bois L'Abbé,47.490362,-0.5140240000000001,0,Europe/Paris,1
CROIXVER,27646,Route de Bouchemaine,47.44489,-0.5772659999999999,0,Europe/Paris,0
STADE,11605,St-Barthélemy Stade,47.461333,-0.4921100000000001,0,Europe/Paris,1
COINTREA,9457,Cointreau,47.476369,-0.5076430000000001,0,Europe/Paris,1
PICAS-E,43700,Picasso,47.452891,-0.5219600000000001,0,Europe/Paris,1
JEMONNET,869755,Monnet,47.465477,-0.6013030000000001,0,Europe/Paris,1
ROCHETTE,22371,Rochette,47.528593,-0.7510850000000001,0,Europe/Paris,0
LORTIE-E,864598,L'Ortier,47.571234,-0.42611,0,Europe/Paris,0
GUERAND,12936,Guérandais,47.527135,-0.7485550000000001,0,Europe/Paris,0
MEMBAL-E,266299,École Balzac,47.557313,-0.6719760000000001,0,Europe/Paris,0
RESIDENC,125095,Résidence,47.572771,-0.4884570000000001,0,Europe/Paris,0
2CROI,,Deux-Croix,47.475107,-0.528966,0,Europe/Paris,1
LECUIT,25536,Lecuit,47.489261,-0.5630160000000001,0,Europe/Paris,1
CLINIQUE,26512,Clinique St-Didier,47.485155,-0.5870770000000001,0,Europe/Paris,1
CLOUET,17775,Clouet,47.480228,-0.5662469999999999,0,Europe/Paris,1
DANGELIN,79140,Daniel Gélin,47.445119,-0.5269640000000001,0,Europe/Paris,1
CITESOLI,61161,La Cité-Chabada,47.488444,-0.5362190000000001,0,Europe/Paris,1
DESERRE,25513,De Serre,47.477786,-0.6153300000000002,0,Europe/Paris,0
CAMUS5-E,20823,Camus,47.484968,-0.5757590000000001,0,Europe/Paris,1
RTSORGES,228228,Route de Sorges,47.432548,-0.4908780000000001,0,Europe/Paris,0
MONNIE-E,2398,Monnier,47.402594,-0.5252980000000002,0,Europe/Paris,1
SARRCI-E,11756,Sarrigné Cimetière,47.501408,-0.387017,0,Europe/Paris,1
PASQUE-E,171163,Pasquelerie,47.510714,-0.353176,0,Europe/Paris,0
BRISPOTI,968494,Brisepotière,47.478445,-0.5283230000000001,0,Europe/Paris,1
DESMAZ-E,15428,Desmazières,47.462647,-0.5350020000000001,0,Europe/Paris,1
CHEVAL,3108,Chevallerie,47.553862,-0.6597080000000001,0,Europe/Paris,0
ZARTIS-E,14755,ZA Feneu,47.579404,-0.591991,0,Europe/Paris,0
AIGREFOI,805210,Aigrefoin,47.473258,-0.439654,0,Europe/Paris,0
CHALOU-E,16972,Chalouère,47.481943,-0.5360310000000001,0,Europe/Paris,1
CLEMEGLI,6423,St-Clément Église,47.524816,-0.7456100000000001,0,Europe/Paris,0
LESRIV-E,26528,Les Rives,47.526712,-0.5250720000000001,0,Europe/Paris,0
MICHEL-E,5053,Michelet,47.462862,-0.5442430000000001,0,Europe/Paris,1
BOURGL-E,178374,Bourg la Croix,47.45073,-0.5238159999999999,0,Europe/Paris,0
GDMOTTAY,327252,Grand Mottay,47.575797,-0.4776390000000001,0,Europe/Paris,0
DELATTRE,10046,De Lattre,47.452609,-0.5416480000000001,0,Europe/Paris,1
GUILLE-E,30927,Guillebotte,47.437282,-0.5132900000000001,0,Europe/Paris,1
BOUCHE-E,10804,Bouchemaine Centre,47.421642,-0.6105330000000001,0,Europe/Paris,1
QVENTS,4688,Quatre Vents,47.497151,-0.420747,0,Europe/Paris,0
ATOLLBEA,20041,L'Atoll,47.484232,-0.6264320000000001,0,Europe/Paris,1
GUINEZE,18158,Guinezert,47.461785,-0.6309890000000001,0,Europe/Paris,0
RTINARD,9553,Roche Tinard,47.496413,-0.4037200000000001,0,Europe/Paris,0
MAUPER-E,24902,Mauperthuis,47.433634,-0.4857020000000001,0,Europe/Paris,0
PATIS,2076,Pâtis,47.464623,-0.7068980000000001,0,Europe/Paris,0
FENEU-ZA,888767,ZA Feneu,47.579174,-0.5913910000000001,0,Europe/Paris,0
1ELYS,,Élysée,47.473589,-0.5853739999999999,0,Europe/Paris,1
MAUNY-E,920846,Mauny,47.525467,-0.6668490000000001,0,Europe/Paris,1
PALLAC-E,21568,Pallach,47.445941,-0.5587930000000001,0,Europe/Paris,1
LE.CLOS,905100,Le Clos,47.424661,-0.428128,0,Europe/Paris,0
ANRO-5A,17458,Roseraie,47.444012,-0.5539180000000001,0,Europe/Paris,1
NOYANT-E,832846,Noyant,47.563318,-0.5457950000000001,0,Europe/Paris,0
CHENOIR,74282,Chemin Noir,47.529411,-0.5908170000000001,0,Europe/Paris,1
LAFA8-C,19461,La Fayette,47.460455,-0.5543510000000001,0,Europe/Paris,1
MUTUALIT,32144,Mutualité,47.4558,-0.5408260000000001,0,Europe/Paris,1
ARCEAU-E,16444,Arceau,47.470973,-0.5198370000000001,0,Europe/Paris,1
COUTARDI,310689,Coutardière,47.468814,-0.407685,0,Europe/Paris,0
BOREAU,22327,Boreau,47.475261,-0.5461940000000001,0,Europe/Paris,1
GRANCHEM,658794,Grand Chemin,47.417564,-0.310771,0,Europe/Paris,0
JDELAV-E,185658,Jeanne de Laval,47.466202,-0.383102,0,Europe/Paris,0
MEIGNANN,10399,Meignanne,47.483984,-0.5822079999999999,0,Europe/Paris,1
BLITOU-E,8054,Blitourne,47.52741,-0.434068,0,Europe/Paris,0
TINELL-E,996881,Tinellière,47.483942,-0.431535,0,Europe/Paris,0
BAUNBRIA,109894,Château Briançon,47.503481,-0.351515,0,Europe/Paris,0
CHATENAY,2146,Châtenay,47.48273,-0.5211780000000001,0,Europe/Paris,1
MONPR-E,167732,Monprofit,47.474539,-0.5670940000000001,0,Europe/Paris,1
BOISHOPI,778313,Bois de l'Hôpital,47.470542,-0.4592780000000001,0,Europe/Paris,0
MOREL,6292,Morel,47.474901,-0.6084840000000001,0,Europe/Paris,1
MACE-E,756877,Macé,47.477009,-0.5317310000000001,0,Europe/Paris,1
PALLACH,22076,Pallach,47.446169,-0.5589980000000001,0,Europe/Paris,1
JUFERR-E,829,Jules Ferry,47.466355,-0.4988960000000001,0,Europe/Paris,1
RAPIDE-E,22324,Rapidex,47.502692,-0.5139590000000001,0,Europe/Paris,1
PATUR-E,23972,Patureaux,47.434015,-0.5279060000000001,0,Europe/Paris,1
PLDEUR-E,30568,Europe,47.487755,-0.5271709999999999,0,Europe/Paris,1
SAVOIE-E,559868,Savoie,47.490703,-0.5275420000000001,0,Europe/Paris,0
DTOUSSAI,,Toussaint Hodée -reporté-,47.499549,-0.425494,0,Europe/Paris,0
GROESPLA,277530,Gare routière Esplanade,47.464709,-0.5580120000000001,0,Europe/Paris,1
ANAFRA-E,882585,Anatole France,47.531319,-0.6137410000000001,0,Europe/Paris,1
HAUSSA-E,494497,Houssaye,47.586506,-0.4568980000000001,0,Europe/Paris,1
BRETEAU,22377,Breteau,47.573784,-0.437338,0,Europe/Paris,0
SOUZELL,11009,Petite Souzelle,47.549137,-0.5644620000000001,0,Europe/Paris,0
LEMERC-E,15956,Lemercier,47.498615,-0.5224280000000001,0,Europe/Paris,0
BRAI8M-E,562043,Place du 8 Mai,47.445998,-0.412363,0,Europe/Paris,0
LICES-E,669316,Lices,47.466947,-0.5546500000000001,0,Europe/Paris,1
CLAIRIER,370558,Clairière,47.39815,-0.5265950000000001,0,Europe/Paris,1
VARENN-E,10527,Varennes,47.565919,-0.5044800000000002,0,Europe/Paris,0
FOUSSEAU,24740,Fousseaux,47.515771,-0.4685080000000001,0,Europe/Paris,0
GAIGNE,150305,Gaigné,47.384,-0.5524370000000001,0,Europe/Paris,0
MONCEA-E,810372,Monceau,47.472331,-0.389562,0,Europe/Paris,0
VIELMA-E,22163,Vieille Maine,47.529978,-0.5277700000000001,0,Europe/Paris,1
RONCIE-E,17649,Roncières,47.436056,-0.5137280000000001,0,Europe/Paris,1
BELNOUE,672416,Bellenoue,47.4206,-0.300998,0,Europe/Paris,0
SAULAIS,425213,Saulais,47.470308,-0.4616320000000001,0,Europe/Paris,0
BEAUREPA,15816,Beaurepaire,47.473985,-0.5596540000000001,0,Europe/Paris,0
BOSQUET,13421,Bosquet,47.410024,-0.5243580000000001,0,Europe/Paris,0
BRAICOMB,699137,Croix Combeau,47.454293,-0.408484,0,Europe/Paris,0
ROUAIRIE,19971,Rouairie,47.475599,-0.6388720000000001,0,Europe/Paris,1
RENARD,27566,Renardière,47.483846,-0.674031,0,Europe/Paris,0
ALLARD-E,5528,Allard,47.448897,-0.5386980000000001,0,Europe/Paris,1
ARBORE-E,21951,Arboretum,47.449385,-0.5444300000000001,0,Europe/Paris,1
DAUTEL-E,26667,Dautel,47.442871,-0.4832760000000001,0,Europe/Paris,0
1CECO,519627,Centre de Congrès,47.474152,-0.5460830000000001,0,Europe/Paris,1
DGELIN-E,81163,Daniel Gélin,47.445152,-0.5271250000000001,0,Europe/Paris,1
GRCHAMPS,364,Grands Champs,47.514649,-0.43421,0,Europe/Paris,0
MTARDA-E,314976,Tardat,47.444881,-0.5518400000000001,0,Europe/Paris,1
MASTSY,460558,St-Sylvain Mairie,47.519873,-0.4710850000000001,0,Europe/Paris,1
LE-PRE,667164,Le Pré,47.515123,-0.5849370000000002,0,Europe/Paris,1
ANLERO-E,14800,André Leroy,47.464626,-0.5490280000000001,0,Europe/Paris,1
IMTEC-E,31805,Bouzinac,47.503229,-0.5097540000000002,0,Europe/Paris,1
PAUGE-E,30126,Pauger,47.483216,-0.6778250000000001,0,Europe/Paris,0
LEDENI-E,6895,Maison du Lac,47.466089,-0.5977830000000001,0,Europe/Paris,1
DIONNIER,4977,Dionnière,47.543693,-0.4850560000000001,0,Europe/Paris,0
LABRUYER,2726,La Bruyère,47.476594,-0.573899,0,Europe/Paris,1
EGLTRELA,208,Trélazé Église,47.445574,-0.4649410000000001,0,Europe/Paris,1
PARMENTI,3753,Parmentier,47.453204,-0.5186220000000001,0,Europe/Paris,1
ESPLO-E,17768,Espace Longuenée,47.54016,-0.6727640000000001,0,Europe/Paris,1
LESROSES,5502,Les Roses,47.427059,-0.5513640000000001,0,Europe/Paris,1
POIREL,14957,Poirel,47.461703,-0.5621180000000001,0,Europe/Paris,1
SHEAKSPE,15855,Shakespeare,47.461877,-0.6125969999999999,0,Europe/Paris,1
IRLAND-E,12365,Irlande,47.523061,-0.6042770000000001,0,Europe/Paris,1
AUTRICH,18326,Autriche,47.522984,-0.6099610000000001,0,Europe/Paris,1
CHENAI-E,145360,Chenaie,47.548042,-0.4744110000000001,0,Europe/Paris,0
VILLESIC,8016,Villesicard,47.452474,-0.5383350000000001,0,Europe/Paris,1
CIMETIER,6354,Cimetière de l'Est,47.471369,-0.5277390000000001,0,Europe/Paris,1
ATOLL-E,43346,L'Atoll-Vallin,47.48318,-0.632515,0,Europe/Paris,0
PAVILLO,3922,Pavillon,47.465368,-0.6217560000000001,0,Europe/Paris,0
TINELLIE,794659,Tinellière,47.483963,-0.431664,0,Europe/Paris,0
FACULT-E,30202,Faculté,47.479299,-0.5507600000000001,0,Europe/Paris,1
STADE-E,12422,St-Barthélemy Stade,47.461241,-0.4918900000000001,0,Europe/Paris,1
HOPA8-C,27358,CHU-Hôpital,47.480652,-0.5548310000000001,0,Europe/Paris,1
LAILANDE,,Laie des Landes,47.582791,-0.418512,0,Europe/Paris,0
2FARC,,Farcy,47.473371,-0.5773690000000001,0,Europe/Paris,1
ESA,6717,ESA,47.458532,-0.5449150000000001,0,Europe/Paris,1
LESGRA-E,324614,Les Grappes,47.426565,-0.301213,0,Europe/Paris,0
PAGNOL,229552,Pagnol,47.554173,-0.6686900000000001,0,Europe/Paris,0
RESIDE-E,209683,Résidence,47.572736,-0.4869690000000001,0,Europe/Paris,0
HAUBOUCH,4077,Hauts de Bouchemaine,47.430487,-0.6095159999999999,0,Europe/Paris,1
MAIL-NAE,15219,Mail,47.471272,-0.5465780000000001,0,Europe/Paris,1
BENE,3624,Béné,47.541165,-0.6096300000000001,0,Europe/Paris,1
TRELCH-E,816825,Chevallerie,47.445981,-0.4586820000000001,0,Europe/Paris,0
SABLONS,28098,Sablons,47.440038,-0.5331330000000001,0,Europe/Paris,1
SBAVENAI,,Venaiserie,47.472615,-0.4858710000000001,0,Europe/Paris,1
REVERIES,12326,Rêveries,47.482005,-0.5784520000000001,0,Europe/Paris,1
JEHUEZ-E,27321,Jean Huez,47.530884,-0.5942620000000001,0,Europe/Paris,1
RTEDAN-E,14532,Route d'Angers,47.42544,-0.5562390000000001,0,Europe/Paris,1
CLAUDEL,14,Claudel,47.449507,-0.5662509999999999,0,Europe/Paris,1
GBREM-E,25296,Gares Bremont,47.465715,-0.5594840000000001,0,Europe/Paris,1
STMARTIN,16698,St-Martin Centre,47.431246,-0.7026630000000001,0,Europe/Paris,0
BOISRA-E,4209,Boisramé,47.478256,-0.5846970000000001,0,Europe/Paris,1
AVALOUP,351192,Avaloup,47.45689,-0.437023,0,Europe/Paris,0
PARMEN-E,7606,Parmentier,47.453104,-0.5185490000000001,0,Europe/Paris,1
DSCAZEAU,24278,Descazeaux,47.476515,-0.5669200000000001,0,Europe/Paris,1
VEILLIER,586304,Veillière,47.526557,-0.5052630000000001,0,Europe/Paris,0
CHAPE,651257,Chapelles,47.468731,-0.382975,0,Europe/Paris,0
GALIL-E,9088,Galilée,47.456596,-0.6678560000000001,0,Europe/Paris,0
AAMIPI-E,28632,AMIPI,47.463783,-0.6266750000000001,0,Europe/Paris,0
STLEGMAI,301813,St-Léger Mairie,47.459292,-0.7096740000000001,0,Europe/Paris,0
BARBO2-E,283046,Barboterie,47.39862,-0.5236900000000001,0,Europe/Paris,0
BOISDAME,541690,Bois des Dames,47.56618,-0.6781509999999999,0,Europe/Paris,1
GRAVEL-E,756972,Gravelle,47.530524,-0.7513710000000001,0,Europe/Paris,1
VILLECHI,12145,Villechien,47.46263,-0.5197420000000001,0,Europe/Paris,1
FONTAINE,15253,La Fontaine,47.569642,-0.5905380000000001,0,Europe/Paris,0
PINSONS,23478,Pinsons,47.472499,-0.6301240000000001,0,Europe/Paris,0
LOMBAR-E,1349,Lombardières,47.442609,-0.6906610000000001,0,Europe/Paris,0
CHEVROLL,858266,Lycée Chevrollier,47.453824,-0.5573090000000001,0,Europe/Paris,0
MEIG34-E,7347,Meignanne Église,47.519711,-0.6675500000000001,0,Europe/Paris,0
ATHLET-E,12108,Athlétis,47.441471,-0.5283490000000001,0,Europe/Paris,1
RIMOUX-E,644943,Rimoux,47.475743,-0.356174,0,Europe/Paris,0
MOUCHERI,404144,Moucherie,47.577036,-0.5446850000000001,0,Europe/Paris,1
2JMOU,14673,Jean Moulin,47.490425,-0.5520750000000001,0,Europe/Paris,1
MERCIER,7042,Mercier,47.492723,-0.4585010000000001,0,Europe/Paris,0
5ROUTE-E,234343,Cinq routes,47.484526,-0.6435830000000001,0,Europe/Paris,1
PTFILL-E,19116,Pont aux Filles,47.512662,-0.5150570000000001,0,Europe/Paris,0
RAMON,25600,Ramon,47.486669,-0.5378830000000001,0,Europe/Paris,1
RABELA-E,28844,Rabelais,47.461596,-0.5469570000000001,0,Europe/Paris,1
1BARR,,La Barre,47.473174,-0.5987260000000001,0,Europe/Paris,1
DEUVAL,17151,Deux Vallées,47.568389,-0.4987820000000001,0,Europe/Paris,0
FRESNA-E,27900,Fresnaies,47.448234,-0.5009000000000001,0,Europe/Paris,1
HOTELLER,30702,Hôtellerie,47.489373,-0.5195959999999999,0,Europe/Paris,1
REUSSI-E,366153,Reussières,47.5693,-0.5643080000000001,0,Europe/Paris,0
POIVRE,690308,Poivre,47.513532,-0.5930460000000001,0,Europe/Paris,1
ORGEMONT,13154,Orgemont,47.447157,-0.5425570000000001,0,Europe/Paris,1
RTEROU-E,538444,Haute Roussière,47.571875,-0.6501280000000002,0,Europe/Paris,0
POULINIE,871781,Poulinière,47.508097,-0.346507,0,Europe/Paris,1
RASPAI-E,14912,Raspail,47.475037,-0.5700940000000001,0,Europe/Paris,0
AQUAVITA,52941,AquaVita,47.493401,-0.5652850000000001,0,Europe/Paris,1
STLOU-E,35907,St-Louis,47.487771,-0.5866320000000002,0,Europe/Paris,0
1BOTA,24128,Terra Botanica,47.494224,-0.5746170000000002,0,Europe/Paris,1
PEGARDE,21733,Petite Garde,47.508358,-0.5881430000000001,0,Europe/Paris,1
NOYAU-E,689066,Noyau,47.512694,-0.365556,0,Europe/Paris,0
ORMEAU-E,18420,Ormeaux,47.48004,-0.5190690000000001,0,Europe/Paris,1
LAMARE,25707,La Mare,47.468452,-0.4653010000000001,0,Europe/Paris,0
PLOTIN-E,626210,Plotinière,47.472141,-0.433089,0,Europe/Paris,0
ANLEROY,29097,André Leroy,47.464661,-0.5482480000000001,0,Europe/Paris,1
CIMETI-E,7431,Cimetière de l'Est,47.471236,-0.5277269999999999,0,Europe/Paris,1
POULARDE,,Poularderie,47.493725,-0.4906270000000001,0,Europe/Paris,0
MENDES-E,25308,Mendès France,47.472945,-0.5456000000000001,0,Europe/Paris,1
PROMENIE,26386,Promeniers,47.47731,-0.6313910000000001,0,Europe/Paris,1
BVALLEES,31943,Basses Vallées,47.579336,-0.4997410000000001,0,Europe/Paris,0
VAURAGER,21571,Vauragère,47.472849,-0.6354160000000001,0,Europe/Paris,1
CAMPJUIG,7458,Juigné Camping,47.537566,-0.616886,0,Europe/Paris,0
RIOTTE-E,6695,Riotteau,47.443937,-0.4992650000000001,0,Europe/Paris,1
SPOT,458426,Germaine Tillion,47.537072,-0.6274550000000001,0,Europe/Paris,1
GROLLI-E,30562,Grolière,47.353982,-0.5276090000000001,0,Europe/Paris,0
RESTLAVA,675479,Restaurant,47.457636,-0.392321,0,Europe/Paris,0
BOULLE-E,15478,Boulle,47.486505,-0.6286910000000001,0,Europe/Paris,1
WALCOURT,20031,Walcourt,47.463316,-0.4859670000000001,0,Europe/Paris,1
JEANNARC,590509,Collège Jeanne d'Arc,47.520392,-0.4655900000000001,0,Europe/Paris,0
LESECO-E,7610,Les Ecots,47.475507,-0.6957930000000001,0,Europe/Paris,0
MOULINMA,32614,Moulin Marcille,47.433767,-0.5005660000000001,0,Europe/Paris,1
GEMMETR,27273,Gemmetrie-ESAIP,47.463176,-0.4991440000000001,0,Europe/Paris,1
BARBOTR2,837793,Barboterie,47.399375,-0.5241380000000001,0,Europe/Paris,0
FAUVETTE,,Fauvettes,47.470943,-0.6280190000000001,0,Europe/Paris,0
STEXUPER,22347,St-Exupéry,47.467847,-0.5365170000000001,0,Europe/Paris,1
CEEQUE-E,15981,Centre Équestre,47.459571,-0.4845620000000001,0,Europe/Paris,1
ELYSEE-E,20767,Élysée,47.473703,-0.584891,0,Europe/Paris,0
CAMPBOUC,11882,Bouchemaine Camping,47.419392,-0.6113680000000001,0,Europe/Paris,1
WALCOU-E,20782,Walcourt,47.463395,-0.4862290000000001,0,Europe/Paris,1
BRISEPOT,2222,Brisepotière,47.479537,-0.5272829999999999,0,Europe/Paris,1
ESPMON-E,34314,Espéranto,47.529501,-0.6037450000000001,0,Europe/Paris,1
MORELLIE,5810,Morellerie,47.451809,-0.5453230000000001,0,Europe/Paris,1
ZARTISAN,20846,ZA Feneu,47.579282,-0.5913730000000001,0,Europe/Paris,0
CLAVERIE,32135,Claverie,47.486652,-0.5045010000000001,0,Europe/Paris,1
GIRARDE,24763,Girardeau,47.436629,-0.5209330000000001,0,Europe/Paris,1
REPUBLIQ,30691,République,47.471006,-0.5539930000000001,0,Europe/Paris,1
STLAUD-E,721584,Collège St-Laud,47.418563,-0.5228320000000001,0,Europe/Paris,0
DELATA-E,29323,De Lattre,47.453187,-0.5413770000000001,0,Europe/Paris,1
VILLEC-E,8804,Villechien,47.463242,-0.5195240000000001,0,Europe/Paris,1
GROSEMAR,49861,Gare routière Sémard,47.465052,-0.5593420000000001,0,Europe/Paris,1
LOUDINAI,581527,L'Oudinais,47.552249,-0.429346,0,Europe/Paris,1
STEXUP-E,15821,St-Exupéry,47.468021,-0.5374030000000001,0,Europe/Paris,1
MORSUB,850214,Morel,47.475283,-0.6082360000000001,0,Europe/Paris,0
AUBERDER,747618,Auberderie,47.537885,-0.4786910000000001,0,Europe/Paris,0
POMONE-E,15036,Pomone,47.481516,-0.5743840000000001,0,Europe/Paris,1
NONNAINS,17013,Les Nonnains,47.586923,-0.423601,0,Europe/Paris,0
PEGARD-E,22451,Petite Garde,47.508405,-0.5879360000000001,0,Europe/Paris,1
MONTHI-E,5661,Monthibert,47.444623,-0.4733020000000001,0,Europe/Paris,1
2CONS,,Conservatoire,47.471461,-0.538178,0,Europe/Paris,1
CARRSS-E,6897,Carrefour St-Serge,47.488125,-0.5435090000000001,0,Europe/Paris,1
PIECE,22296,Pièce du Moulin,47.507364,-0.5966220000000001,0,Europe/Paris,1
UNION,2517,Union,47.51962,-0.4753120000000001,0,Europe/Paris,1
LESRIVES,31416,Les Rives,47.526623,-0.5250870000000001,0,Europe/Paris,1
PELUAU,16,Peluau,47.489685,-0.5674830000000001,0,Europe/Paris,1
SOLAND,31835,Soland,47.399479,-0.5312730000000001,0,Europe/Paris,1
CHDARR,39215,Château,47.468772,-0.5592840000000001,0,Europe/Paris,1
VANDEL,63584,Vandellant,47.478031,-0.5210570000000001,0,Europe/Paris,1
LAENN,43968,Laennec,47.539332,-0.6183700000000001,0,Europe/Paris,1
SOUL-E,22770,Soulaire,47.577519,-0.5541250000000001,0,Europe/Paris,0
GENDRON,,Gendron,47.437869,-0.5269600000000001,0,Europe/Paris,1
JANEQUIN,297498,Collège Janequin,47.498117,-0.5915260000000001,0,Europe/Paris,0
BOHACEND,953348,La Cendreuse,47.422421,-0.384953,0,Europe/Paris,0
LUTIN-E,331921,Lutin,47.475729,-0.5341740000000001,0,Europe/Paris,1
BAUDELAI,204931,Baudelaire,47.396421,-0.5241100000000001,0,Europe/Paris,1
LORPLM-E,8507,L'Orée,47.542585,-0.6723350000000001,0,Europe/Paris,0
COSSE-E,7690,Cosse,47.43825,-0.5534470000000001,0,Europe/Paris,0
MEMBMA-E,3254,Membrolle Mairie,47.560763,-0.672784,0,Europe/Paris,1
OCEANSUD,604969,Delage,47.514251,-0.4482090000000001,0,Europe/Paris,1
GARDOT-E,17618,Gardot,47.468284,-0.5331030000000001,0,Europe/Paris,1
BASMORTI,7483,Bas Mortier,47.515371,-0.4746250000000001,0,Europe/Paris,1
CHAMBO-E,22463,Champboureau,47.396673,-0.6367170000000001,0,Europe/Paris,0
SAICROIX,18938,Ste-Croix,47.469957,-0.5543210000000001,0,Europe/Paris,1
HUTREA-E,7382,Hutreau,47.431353,-0.5554940000000002,0,Europe/Paris,0
EGLTRE-E,1318,Trélazé Église,47.445443,-0.4646120000000001,0,Europe/Paris,1
JAUDET-E,22741,Jaudette,47.463796,-0.4903880000000001,0,Europe/Paris,1
BOURRELI,385547,Bourrelière,47.381943,-0.5640330000000001,0,Europe/Paris,0
CHAERI-E,8276,Château Érigné,47.406391,-0.5260120000000001,0,Europe/Paris,0
2MTAI,,Montaigne,47.469298,-0.5328670000000001,0,Europe/Paris,1
2ACAS,12080,Acacias,47.503703,-0.5862700000000001,0,Europe/Paris,1
AULNERIE,937759,Aulnerie,47.587453,-0.4928890000000001,0,Europe/Paris,0
EBEAUPIN,22853,Ébeaupin,47.464338,-0.6247400000000001,0,Europe/Paris,0
RESTUNIV,27148,Restau U,47.479178,-0.6001980000000001,0,Europe/Paris,1
ALDUNANT,,Allonneau-Dunant,47.482881,-0.5268220000000001,0,Europe/Paris,1
OLIVERAI,4722,L'Oliveraie,47.427215,-0.7126209999999999,0,Europe/Paris,0
BEDAUDIE,26883,Bedaudière,47.501437,-0.394023,0,Europe/Paris,0
BECKE,58108,Becker,47.538835,-0.6220050000000001,0,Europe/Paris,1
LACACCUE,15782,Maison de L'Environnement,47.464238,-0.5939320000000001,0,Europe/Paris,1
COUREAU,617489,Coureau,47.420394,-0.368765,0,Europe/Paris,0
OFFTOURI,26477,Office de Tourisme,47.468866,-0.5581220000000001,0,Europe/Paris,1
GAREBO-E,14886,Bouchemaine Gare,47.416676,-0.6148580000000001,0,Europe/Paris,1
BANCHA-E,25865,Banchais,47.485523,-0.5117960000000001,0,Europe/Paris,1
ESEO,,ESEO,47.492359,-0.5518729999999999,0,Europe/Paris,1
GRCHAM-E,669,Grands Champs,47.514728,-0.434038,0,Europe/Paris,0
PTGRCHAM,12601,Petits Grandchamps,47.463898,-0.7143900000000001,0,Europe/Paris,0
DLOGIS-E,,Logis Notre-Dame -reporté-,47.498271,-0.426567,0,Europe/Paris,0
CHENR-E,284422,Chêne Rond,47.395843,-0.536236,0,Europe/Paris,0
1PMAY,17915,Plateau Mayenne,47.49571,-0.5800510000000001,0,Europe/Paris,1
BOUTEILL,602328,Bouteillerie,47.479017,-0.432242,0,Europe/Paris,0
FRAVISCO,697386,François Villon,47.43303,-0.5219680000000001,0,Europe/Paris,0
PERRAUDI,3443,Perraudière,47.482274,-0.6811720000000001,0,Europe/Paris,0
INTERAVR,29162,Auchan,47.518696,-0.6075860000000001,0,Europe/Paris,1
CRVESCOL,697945,Croix Verte,47.474296,-0.354762,0,Europe/Paris,0
PVIVIE-E,970019,Petit Vivier,47.445584,-0.6066250000000001,0,Europe/Paris,1
MALRAU-E,468359,Malraux,47.457616,-0.4734070000000001,0,Europe/Paris,1
DURELLE1,530721,Durellerie Carrée,47.428933,-0.6412120000000001,0,Europe/Paris,0
FRANCA-E,27417,Françaiserie,47.521484,-0.4662270000000001,0,Europe/Paris,1
LE-PRE-E,150327,Le Pré,47.515249,-0.5851120000000001,0,Europe/Paris,1
POISSO-E,16364,Cœur de Maine,47.472569,-0.5568290000000001,0,Europe/Paris,1
AQUA-D5A,55947,AquaVita,47.493407,-0.5655370000000001,0,Europe/Paris,1
CLOSDU-E,700600,Clos du Vau,47.57714,-0.4581420000000001,0,Europe/Paris,0
MURIER,810277,Mûrier,47.514058,-0.3765780000000001,0,Europe/Paris,0
LAFAUVEL,8205,La Fauvelais,47.45217,-0.5127680000000001,0,Europe/Paris,1
VAILLA-E,15274,Vaillante,47.485316,-0.5333639999999999,0,Europe/Paris,1
LILAS,6187,Lilas,47.459435,-0.6629920000000001,0,Europe/Paris,0
PINELI-E,90368,Pinelier,47.522453,-0.742195,0,Europe/Paris,0
DARWIN,13304,Darwin,47.473837,-0.6041980000000001,0,Europe/Paris,0
MARSAULA,547381,Marsaulaie,47.415556,-0.343703,0,Europe/Paris,0
JUSTICES,9099,Justices,47.453629,-0.526549,0,Europe/Paris,1
LIZE.,26415,Lizé,47.487126,-0.5744080000000001,0,Europe/Paris,1
DURVILLE,28495,Dumont d'Urville,47.445205,-0.5571770000000001,0,Europe/Paris,1
LANDREAU,29073,Le Landreau,47.474025,-0.6178380000000001,0,Europe/Paris,1
LAVALLEE,601332,La Vallée,47.493329,-0.389226,0,Europe/Paris,1
CHAUMIER,12643,Chaumières,47.524116,-0.5233139999999999,0,Europe/Paris,1
JULESV-E,3251,Jules Verne,47.446936,-0.5606320000000001,0,Europe/Paris,1
MONTHIBE,4518,Monthibert,47.44474,-0.4738780000000001,0,Europe/Paris,1
FAUVET-E,,Fauvettes,47.470956,-0.6281760000000001,0,Europe/Paris,0
MURSHDV,7383,Murs-Érigné Hôtel de Ville,47.401834,-0.5365300000000001,0,Europe/Paris,1
STCLEM,958167,Moulin,47.529843,-0.7451440000000001,0,Europe/Paris,1
INTAVR-E,6846,Auchan,47.518234,-0.6064530000000001,0,Europe/Paris,1
1MTAI,,Montaigne,47.469226,-0.5328030000000001,0,Europe/Paris,1
GLYCIN-E,28945,Glycines,47.498834,-0.5238600000000001,0,Europe/Paris,0
HARAS-E,3412,Foch-Haras,47.467252,-0.5522340000000001,0,Europe/Paris,1
VIGNES-E,19033,Les Vignes,47.408537,-0.6263310000000001,0,Europe/Paris,1
ESNAUDER,511998,L'Esnauderie,47.593253,-0.5498230000000001,0,Europe/Paris,0
PONTSC-E,15414,Ponts-de-Cé Mairie,47.425495,-0.5258110000000001,0,Europe/Paris,1
MONOD-E,20101,Monod,47.478985,-0.6363790000000001,0,Europe/Paris,1
LAPLESSE,22986,La Plesse,47.499411,-0.6203680000000001,0,Europe/Paris,0
PERRAU-E,19554,Perraudière,47.48239,-0.6814160000000001,0,Europe/Paris,0
UNION-E,2651,Union,47.519615,-0.4751790000000001,0,Europe/Paris,1
AUVERG-E,3123,Auvergne,47.490197,-0.5300550000000001,0,Europe/Paris,1
VILVEQUE,4402,Villevêque Mairie,47.559473,-0.422195,0,Europe/Paris,0
ECHMA-E,30440,Echman,47.490228,-0.5756370000000001,0,Europe/Paris,1
LACDMA-E,27440,Lac De Maine Nautique,47.461097,-0.5963840000000001,0,Europe/Paris,1
CHAMPD,30452,Champdollant,47.556722,-0.5614330000000001,0,Europe/Paris,0
1STSE,901361,St-Serge Université,47.476135,-0.5506700000000001,0,Europe/Paris,1
MINDIE-E,452383,Mindière,47.440089,-0.6304360000000001,0,Europe/Paris,0
BECK-E,67197,Becker,47.538824,-0.6221840000000001,0,Europe/Paris,1
GARVIB-E,117813,Gare Vieux Briollay,47.572999,-0.4825470000000001,0,Europe/Paris,0
MERCIE-E,11750,Mercier,47.492691,-0.4581930000000001,0,Europe/Paris,0
TEMPLE-E,986897,Temple,47.489583,-0.4283370000000001,0,Europe/Paris,0
CORNCR-E,434360,Croix Verte,47.474017,-0.354858,0,Europe/Paris,0
SCANIA-E,14160,Scania,47.493612,-0.5222260000000001,0,Europe/Paris,0
PETGUICH,607987,Petit Guichard,47.526066,-0.4790780000000001,0,Europe/Paris,0
2CECO,363258,Centre de Congrès,47.474266,-0.5461000000000001,0,Europe/Paris,1
LANGEV-E,24587,Langevine,47.478757,-0.6919130000000001,0,Europe/Paris,0
MASTELLE,16341,Mastelle,47.529427,-0.5924830000000001,0,Europe/Paris,1
2PATT,,Patton,47.473402,-0.5927280000000001,0,Europe/Paris,1
NDAMLA-E,24523,Notre Dame du Lac,47.479713,-0.5897670000000002,0,Europe/Paris,1
CAMLAC-E,1059,Lac de Maine Camping,47.457702,-0.5972280000000001,0,Europe/Paris,1
COSSIE-E,273670,Cossières,47.526266,-0.4483480000000001,0,Europe/Paris,1
SOULAINE,1828,Le Tertre,47.362895,-0.522665,0,Europe/Paris,0
SAVOIE,919007,Savoie,47.49115,-0.5282970000000001,0,Europe/Paris,1
ROMORNA,32360,Roche Morna,47.420324,-0.5814000000000001,0,Europe/Paris,1
FRCEVERT,14982,Cevert,47.446348,-0.5441870000000001,0,Europe/Paris,1
MONNIER,1582,Monnier,47.403184,-0.5250100000000001,0,Europe/Paris,1
VEILLERO,203459,Veillerot,47.523719,-0.4733070000000001,0,Europe/Paris,0
INTREPID,14842,Intrépide,47.447226,-0.5521100000000001,0,Europe/Paris,1
AURIOL,3820,Auriol,47.490868,-0.5649590000000001,0,Europe/Paris,1
PTFILLES,1435,Pont aux Filles,47.51201,-0.5150240000000001,0,Europe/Paris,0
PLDULY-E,29899,Place du Lycée,47.466909,-0.5445980000000001,0,Europe/Paris,1
CHDARR-E,31053,Château,47.469273,-0.5600320000000001,0,Europe/Paris,1
HTESBR-E,504742,Hautes Bruyères,47.591231,-0.4521410000000001,0,Europe/Paris,0
POUILLE,25650,Pouillé,47.432768,-0.5317520000000001,0,Europe/Paris,1
GADIFA-E,226554,Gadifaix,47.576028,-0.44943,0,Europe/Paris,0
PARCGA-E,16675,Garenne,47.478341,-0.5765030000000001,0,Europe/Paris,1
LANDRE-E,31271,Le Landreau,47.474163,-0.6178500000000001,0,Europe/Paris,1
BUISSO-E,5587,Buisson,47.441901,-0.4839600000000001,0,Europe/Paris,1
FMEDEC-E,2930,Fac de Médecine,47.48739,-0.5525610000000001,0,Europe/Paris,1
CAMLACMA,276,Lac de Maine Camping,47.458118,-0.5969920000000001,0,Europe/Paris,1
GRANBELL,19824,Grange aux Belles,47.476672,-0.6285940000000001,0,Europe/Paris,1
DAGUERRE,2483,Dojo Daguerre,47.446594,-0.5063820000000001,0,Europe/Paris,1
VALEO,20234,Valéo,47.502137,-0.5169340000000001,0,Europe/Paris,1
ISORET-E,23628,Isoret,47.474436,-0.5201490000000001,0,Europe/Paris,1
MAETUD-E,25699,Polytech,47.480635,-0.5945859999999999,0,Europe/Paris,1
MARIANNE,6575,Marianne,47.450169,-0.5310880000000001,0,Europe/Paris,1
SALET-AR,91682,Salette,47.512493,-0.587165,0,Europe/Paris,1
1BAMA,24604,Bamako,47.452165,-0.5564590000000001,0,Europe/Paris,1
SAILLE-E,29523,Saillerie,47.486916,-0.5068680000000001,0,Europe/Paris,1
CHPEGUY,855516,Charles Péguy,47.529912,-0.6202850000000001,0,Europe/Paris,1
SAJACQUE,17939,St-Jacques,47.473521,-0.5712780000000001,0,Europe/Paris,1
LECUIT-E,28784,Lecuit,47.489452,-0.5627630000000001,0,Europe/Paris,1
MAIRAV-E,14192,Avrillé Mairie,47.504954,-0.5908140000000001,0,Europe/Paris,1
SHEAKS-E,14745,Shakespeare,47.461973,-0.6126200000000001,0,Europe/Paris,1
ARTAUD-E,14855,Artaud,47.433341,-0.610894,0,Europe/Paris,1
VALLO,23454,Vallon,47.463608,-0.6025910000000001,0,Europe/Paris,1
BOURJOLY,84254,Bourg Joly,47.408872,-0.313344,0,Europe/Paris,0
ROUSSI-E,228030,Roussière,47.574653,-0.6508340000000001,0,Europe/Paris,0
CHBBEILL,21074,Chapelle Belle-Beille,47.475812,-0.5861200000000001,0,Europe/Paris,1
GASPAL-E,409,Gaspalon,47.452852,-0.5072810000000001,0,Europe/Paris,1
CHENOI-E,903926,Chemin Noir,47.529576,-0.5910200000000001,0,Europe/Paris,1
GUICHETE,684737,Guicheteau,47.39549,-0.5555540000000001,0,Europe/Paris,0
COROT,,Corot,47.471046,-0.4896200000000001,0,Europe/Paris,1
LABOET-E,937479,La Boette,47.420098,-0.445475,0,Europe/Paris,1
1RALL,,Ralliement,47.471129,-0.5516640000000002,0,Europe/Paris,1
CHEVRO-E,440202,Lycée Chevrollier,47.453911,-0.5574760000000001,0,Europe/Paris,0
MALRAUX,258751,Malraux,47.457471,-0.4734720000000001,0,Europe/Paris,1
1EURO,,Europe,47.486621,-0.5270350000000001,0,Europe/Paris,1
CRBLAN-E,21587,Croix Blanche,47.480756,-0.5171450000000001,0,Europe/Paris,1
FRAYON,221540,Frayon,47.46125,-0.7081010000000001,0,Europe/Paris,1
VIGNES,18380,Les Vignes,47.408901,-0.6263540000000001,0,Europe/Paris,1
RECLAI-E,641741,René Clair,47.536595,-0.6217940000000001,0,Europe/Paris,1
PONTLA-E,16421,Pont Laitier,47.413199,-0.6171990000000001,0,Europe/Paris,1
PTANJO-E,7177,Croisée,47.459078,-0.6674840000000001,0,Europe/Paris,0
GARECOUF,30849,Gare d'Écouflant,47.503599,-0.5201830000000001,0,Europe/Paris,0
GENTR-E,30843,Gentric,47.447939,-0.4851860000000001,0,Europe/Paris,0
CHESNAIE,21405,La Chesnaie,47.437232,-0.5243110000000001,0,Europe/Paris,1
RIMOUX,716161,Rimoux,47.475803,-0.3562060000000001,0,Europe/Paris,0
DESMAZ,15401,Desmazières,47.462542,-0.5345259999999999,0,Europe/Paris,1
RBRIOL-E,8269,Route de Briollay,47.486155,-0.5328600000000001,0,Europe/Paris,1
MIMOSA-E,,Mimosas,47.481552,-0.5231920000000001,0,Europe/Paris,1
LANGEVIN,23618,Langevine,47.477812,-0.6920100000000001,0,Europe/Paris,0
MVIGNE-E,803997,Marcel Vigne,47.475158,-0.5824180000000001,0,Europe/Paris,1
HELBOU,76238,Hélène Boucher,47.485999,-0.4898800000000001,0,Europe/Paris,1
BEDAUD-E,5506,Bedaudière,47.501358,-0.393321,0,Europe/Paris,0
LHOIRIE2,,L'Hoirie,47.467167,-0.6184900000000001,0,Europe/Paris,1
SAINTEAN,,Sainte Anne,47.591064,-0.4566060000000001,0,Europe/Paris,0
BOUGONNI,27073,Bourgonnier,47.462174,-0.5422270000000001,0,Europe/Paris,1
TRINIT-E,29503,Trinité,47.475166,-0.5617799999999999,0,Europe/Paris,1
CIAVRILL,24835,Avrillé Cimetière,47.506404,-0.5910720000000002,0,Europe/Paris,1
1LGAR,20910,Les Gares,47.464465,-0.5554650000000001,0,Europe/Paris,1
COUBER-E,70,Jean Bouin,47.458882,-0.5328320000000001,0,Europe/Paris,1
ESNAUD-E,91404,L'Esnauderie,47.593146,-0.5497150000000001,0,Europe/Paris,0
DAGUVALA,929816,Val d'Authion,47.41939,-0.428294,0,Europe/Paris,0
GPOMPIDO,2755,Pompidou,47.491891,-0.5923389999999999,0,Europe/Paris,0
JERUSALE,23164,Jérusalem,47.473053,-0.5302460000000001,0,Europe/Paris,1
RIOTTEAU,29013,Riotteau,47.443933,-0.4987890000000001,0,Europe/Paris,1
SOLELE-E,26456,Soleil Levant,47.484894,-0.516754,0,Europe/Paris,1
SOLELEVA,25379,Soleil Levant,47.484629,-0.5175920000000001,0,Europe/Paris,1
TEMPLE,128919,Temple,47.489541,-0.428495,0,Europe/Paris,0
PROVINS,14341,Provins,47.492528,-0.5024220000000001,0,Europe/Paris,1
DELESC-E,22260,Delescluze,47.466048,-0.6050450000000001,0,Europe/Paris,1
MACURI-E,15853,Marie Curie,47.43331,-0.5170470000000001,0,Europe/Paris,1
BAUDRA-E,11299,Baudrairie,47.437811,-0.5075910000000001,0,Europe/Paris,1
MEIGNA34,22128,Meignanne Église,47.519955,-0.6675320000000001,0,Europe/Paris,0
BRAINA-E,364514,Crémaillère d'Argent,47.465282,-0.433265,0,Europe/Paris,0
PRTLAU-E,4444,Port Launay,47.52092,-0.5216260000000001,0,Europe/Paris,0
PICAS,26555,Picasso,47.452988,-0.5231610000000001,0,Europe/Paris,1
DUBE-E,583889,Dube,47.415419,-0.5232560000000001,0,Europe/Paris,1
VIEUXPOR,876933,Vieux Port,47.57112,-0.4925900000000001,0,Europe/Paris,0
PAUGER,23604,Pauger,47.482873,-0.6783180000000001,0,Europe/Paris,0
2STGI,31945,St-Gilles,47.506242,-0.5889750000000001,0,Europe/Paris,1
MAUFINE,36835,Maufinée,47.502189,-0.5891710000000001,0,Europe/Paris,1
LANGLADE,,Langlade,47.467749,-0.5295299999999999,0,Europe/Paris,0
2BARR,,La Barre,47.473199,-0.5988810000000001,0,Europe/Paris,1
PERRIERE,395213,La Perrière,47.464766,-0.408236,0,Europe/Paris,0
BEAUSSIE,62567,Beaussier,47.47588,-0.5992490000000001,0,Europe/Paris,1
BASMOR-E,8169,Bas Mortier,47.51532,-0.4744830000000001,0,Europe/Paris,1
HAUBOU-E,4893,Hauts de Bouchemaine,47.430068,-0.609392,0,Europe/Paris,1
JEJAURES,6732,Jean Jaurès,47.457331,-0.5231660000000001,0,Europe/Paris,1
BOURJO-E,825402,Bourg Joly,47.408828,-0.313155,0,Europe/Paris,0
GENETIER,30363,Genetière,47.495005,-0.442515,0,Europe/Paris,0
LECLSY-E,30324,Maréchal Leclerc,47.518415,-0.4667240000000001,0,Europe/Paris,1
HOTELL-E,31454,Hôtellerie,47.488845,-0.5189580000000001,0,Europe/Paris,1
POIVRE-E,17887,Poivre,47.513557,-0.5931310000000001,0,Europe/Paris,1
MASJLI-E,20082,St-Jean Mairie,47.458643,-0.6589270000000002,0,Europe/Paris,0
ALLEMAGN,7193,Allemagne,47.526667,-0.6019230000000001,0,Europe/Paris,1
BACHOUAS,294727,Bachouasne,47.467853,-0.433422,0,Europe/Paris,0
ECOANDAR,621938,Andard École,47.457398,-0.398655,0,Europe/Paris,0
BEAURE-E,6393,Beaurepaire,47.474004,-0.5594870000000001,0,Europe/Paris,0
LOUPINO,22893,Loupinot,47.424534,-0.5525070000000001,0,Europe/Paris,1
RENOU,6625,Renou,47.436923,-0.4867620000000001,0,Europe/Paris,0
ALLARD,27879,Allard,47.449534,-0.5387470000000001,0,Europe/Paris,1
JEBOUI-E,32451,Jean Bouin,47.458999,-0.5328130000000001,0,Europe/Paris,1
GALLIE,3438,Gallieni,47.434617,-0.5245720000000001,0,Europe/Paris,1
1BBCA,,Belle-Beille Campus,47.477932,-0.6031990000000002,0,Europe/Paris,1
JEBOUTON,30254,Jean Boutton,47.438577,-0.5073670000000001,0,Europe/Paris,1
FRES37-E,286593,Le Fresne,47.442386,-0.5835920000000001,0,Europe/Paris,0
CAMPBO-E,13123,Bouchemaine Camping,47.419291,-0.6116390000000002,0,Europe/Paris,1
CHEMONGA,921683,Chemin de Mongazon,47.484508,-0.4849220000000001,0,Europe/Paris,0
LAVALE-E,97392,La Vallée,47.493322,-0.389125,0,Europe/Paris,1
ROCHMA-E,370620,Roche Marotte,47.447371,-0.5192860000000001,0,Europe/Paris,0
SAULA-E,997892,Saulaie,47.528968,-0.4877470000000001,0,Europe/Paris,0
SOUCMAIR,431117,Soucelles Mairie,47.56812,-0.4191250000000001,0,Europe/Paris,0
BRAINN-E,145513,Narcé,47.448579,-0.431165,0,Europe/Paris,0
JUIGDEP,15142,Juigné,47.539949,-0.6153830000000001,0,Europe/Paris,1
STLEONCB,11495,St-Léonard,47.459632,-0.5220570000000001,0,Europe/Paris,1
BEAULIEU,4126,Beaulieu,47.495526,-0.4370260000000001,0,Europe/Paris,0
BICHON-E,20435,Bichon,47.479236,-0.5636420000000001,0,Europe/Paris,1
COINTR-E,6267,Cointreau,47.476442,-0.5073120000000001,0,Europe/Paris,1
MAIRTREL,26533,Trélazé Mairie,47.445663,-0.4691700000000001,0,Europe/Paris,1
ALEROY,16814,André Leroy,47.464497,-0.5484980000000002,0,Europe/Paris,1
STEMEL-E,576181,Ste-Melaine Centre,47.370358,-0.4966200000000001,0,Europe/Paris,0
VILSAN-E,309,Village Santé,47.457155,-0.512175,0,Europe/Paris,1
LINOVE-E,7167,Lino Ventura,47.44716,-0.5291890000000001,0,Europe/Paris,1
DUBE,11379,Dube,47.415859,-0.5230380000000001,0,Europe/Paris,1
LEGRAS-E,11618,Legras,47.529174,-0.5668900000000001,0,Europe/Paris,0
2ANRO,32091,Roseraie,47.443924,-0.554027,0,Europe/Paris,1
MILLOTCO,6963,Millot,47.456943,-0.5334230000000001,0,Europe/Paris,0
MORLIE-E,18333,Morlière,47.461561,-0.4823480000000001,0,Europe/Paris,1
2STRA,16728,Strasbourg,47.457518,-0.5540590000000001,0,Europe/Paris,1
CHATAI,372480,Chataignier,47.545682,-0.6499830000000001,0,Europe/Paris,0
JEAN-MON,880633,Monnet,47.465602,-0.6014650000000001,0,Europe/Paris,1
BLEUNIER,852081,Bleunière,47.556612,-0.424492,0,Europe/Paris,1
VALINIER,69725,Petites Valinières,47.507204,-0.445,0,Europe/Paris,0
REUSSIER,434069,Reussières,47.569408,-0.5643210000000001,0,Europe/Paris,0
VALDE-AR,788530,Val de Maine,47.443074,-0.6124280000000001,0,Europe/Paris,1
BELPOU-E,21861,Belle Poule,47.428427,-0.5277539999999999,0,Europe/Paris,0
VIRELET,259631,Virelet,47.478741,-0.340244,0,Europe/Paris,0
AROBA-E,31354,Arobase,47.463994,-0.5316980000000001,0,Europe/Paris,1
HUETTE-E,924330,Huetterie,47.458948,-0.4789360000000001,0,Europe/Paris,0
CROIXV-E,28430,Route de Bouchemaine,47.444974,-0.5772090000000001,0,Europe/Paris,0
BOUTHOMA,29965,Bouché Thomas,47.444822,-0.5500100000000001,0,Europe/Paris,1
CARCIT-E,8361,Carrefour St-Serge,47.487632,-0.5431430000000002,0,Europe/Paris,1
MILLAR-E,10309,Millardière,47.513919,-0.4737460000000001,0,Europe/Paris,1
LOTVIL-E,788224,Lotissement Villevèque,47.556566,-0.4255610000000001,0,Europe/Paris,0
SOUZE-E,13244,Petite Souzelle,47.549681,-0.5638400000000001,0,Europe/Paris,0
PONTLAIT,15506,Pont Laitier,47.413158,-0.6170900000000001,0,Europe/Paris,1
BOISNERI,923534,Boisnerie,47.511524,-0.360042,0,Europe/Paris,0
PAQURA-E,703249,Paqueraie,47.481102,-0.4101350000000001,0,Europe/Paris,0
EPIRE-E,7152,Épiré,47.398263,-0.634565,0,Europe/Paris,0
1HSAU,3016,Hauts de St-Aubin,47.492152,-0.5604220000000001,0,Europe/Paris,1
FOUQUE-E,28861,Fouquetterie,47.468041,-0.7053010000000001,0,Europe/Paris,0
COLOM-E,64617,Colombier,47.482555,-0.4903830000000001,0,Europe/Paris,1
LASOUR-E,,La Source,47.477806,-0.6394650000000001,0,Europe/Paris,1
BALANDE,29121,Basse Lande,47.505124,-0.5948200000000001,0,Europe/Paris,1
MACE,23738,Macé,47.476645,-0.5327370000000001,0,Europe/Paris,1
LESTOU-E,245279,Les Touches,47.53719,-0.5711300000000001,0,Europe/Paris,0
STCHARLE,146807,Collège St-Charles,47.47564,-0.5669380000000001,0,Europe/Paris,0
POISSONN,29689,Cœur de Maine,47.472316,-0.5571670000000001,0,Europe/Paris,1
CTRETRI,2211,Centre de Tri,47.452235,-0.5703360000000001,0,Europe/Paris,1
DESCAZEA,5599,Descazeaux,47.477432,-0.5659450000000001,0,Europe/Paris,1
KENNED-E,21066,Kennedy,47.49216,-0.5771530000000001,0,Europe/Paris,1
PATIS-E,29802,Pâtis,47.464767,-0.7082430000000001,0,Europe/Paris,0
OCENOR-E,478395,ZA L'Océane,47.516007,-0.443245,0,Europe/Paris,1
VAUBAN,16296,Vauban,47.4602,-0.5608630000000001,0,Europe/Paris,1
CCMOLIER,,Centre Cial Mollière,47.460866,-0.6171800000000001,0,Europe/Paris,1
CIMTRELA,31082,Trélazé Cimetière,47.446401,-0.4625970000000001,0,Europe/Paris,1
SARRMA-E,23555,Sarrigné Mairie,47.501677,-0.383139,0,Europe/Paris,1
RECLAIR,461517,René Clair,47.536699,-0.6218490000000001,0,Europe/Paris,1
LORRAIN2,31902,Lorraine,47.470056,-0.5478850000000001,0,Europe/Paris,1
GERI25-E,19686,Grands Ruaux,47.565971,-0.5554519999999999,0,Europe/Paris,0
FREMUR,18974,Frémur,47.45871,-0.5582240000000001,0,Europe/Paris,1
GENIE,17276,Génie,47.457984,-0.5639090000000001,0,Europe/Paris,1
LECHEN-E,9672,Le Chêne,47.420738,-0.5774730000000001,0,Europe/Paris,1
CLOSNEUF,23457,Clos Neuf,47.422416,-0.5654860000000002,0,Europe/Paris,1
BELOEI-E,15961,Bel Oeil,47.427039,-0.5567710000000001,0,Europe/Paris,0
STLAUD,248626,Collège St-Laud,47.418504,-0.5227700000000001,0,Europe/Paris,0
VDLOIRE,6075,Val de Loire,47.449083,-0.513561,0,Europe/Paris,1
ADEZIERE,1649,Adézière,47.50495,-0.6050530000000001,0,Europe/Paris,1
ANDARE-E,503720,Rezeau,47.466847,-0.381857,0,Europe/Paris,0
PISANI,517316,Pisani,47.482962,-0.5489440000000001,0,Europe/Paris,0
PRUILL,642291,Pruillé Centre,47.577165,-0.6627930000000001,0,Europe/Paris,0
SMATOFTO,299329,St-Mathurin Mairie,47.409498,-0.321225,0,Europe/Paris,0
CCHEMINE,30005,Croix de Cheminée,47.467762,-0.5032280000000001,0,Europe/Paris,0
PELSTADE,26074,Pellouailles Stade,47.52324,-0.438945,0,Europe/Paris,0
HTEBRUYP,,Hautes Bruyères -Primaires-,47.592604,-0.4535430000000001,0,Europe/Paris,0
GRAVELLE,875723,Gravelle,47.5306,-0.7513990000000002,0,Europe/Paris,1
SOECPUBL,99939,École E. Joulain,47.571219,-0.421095,0,Europe/Paris,0
BAUNCENT,353041,Bauné Centre,47.499403,-0.318608,0,Europe/Paris,0
KENNEDY,32307,Kennedy,47.492142,-0.5773490000000001,0,Europe/Paris,1
CONFLU-E,887272,Confluence,47.505112,-0.5076100000000001,0,Europe/Paris,0
MASGEMME,3967,Ste-Gemmes Mairie,47.422772,-0.5565450000000001,0,Europe/Paris,1
CHPEGU-E,362903,Charles Péguy,47.530013,-0.6203080000000001,0,Europe/Paris,1
ALLEMA-E,9078,Allemagne,47.527919,-0.5999530000000001,0,Europe/Paris,1
CHARRU-E,758914,Charruau,47.37271,-0.5092130000000001,0,Europe/Paris,0
TOURAINE,26936,Touraine,47.539045,-0.435465,0,Europe/Paris,0
2QUAI,,Le Quai,47.472248,-0.5666020000000001,0,Europe/Paris,1
1CROI,,Deux-Croix,47.475158,-0.5288700000000001,0,Europe/Paris,1
VIVIER-E,27166,Viviers,47.45154,-0.5351680000000001,0,Europe/Paris,1
LACOUDRE,14817,La Coudre,47.460422,-0.7106620000000001,0,Europe/Paris,0
GLYCINES,2847,Glycines,47.499006,-0.5238900000000001,0,Europe/Paris,0
CSARTHE,114,Croix de Sarthe,47.53995,-0.5703100000000001,0,Europe/Paris,0
AVRMAIRI,,Avrillé Mairie,47.503863,-0.5912620000000001,0,Europe/Paris,0
1MONP,,Monplaisir,47.488903,-0.5268290000000001,0,Europe/Paris,1
JDELAVAL,276704,Jeanne de Laval,47.466151,-0.383357,0,Europe/Paris,0
1ACAS,16233,Acacias,47.503646,-0.5863750000000001,0,Europe/Paris,1
LECLERC5,32620,Leclerc,47.483075,-0.5760150000000001,0,Europe/Paris,1
PETMOTTE,51560,Petite Motte,47.576343,-0.5927800000000001,0,Europe/Paris,1
HOSGEMME,3118,Ste-Gemmes Hôpital,47.422862,-0.5607850000000001,0,Europe/Paris,1
CHARNASS,30008,Charnasserie,47.491974,-0.5568830000000001,0,Europe/Paris,1
CESARG-E,23705,César Geoffray,47.458387,-0.5454940000000001,0,Europe/Paris,1
SOUCEL-E,19812,Soucelles Centre,47.570167,-0.4203,0,Europe/Paris,0
TUFFIE-E,818343,Tuffière,47.503131,-0.376603,0,Europe/Paris,0
APPENT-E,20678,Appentis,47.445199,-0.5465630000000001,0,Europe/Paris,1
FOUDON,534977,Foudon,47.492288,-0.4253680000000001,0,Europe/Paris,0
LAURIERE,66217,L'aurière,47.567882,-0.5793509999999999,0,Europe/Paris,1
JEROST-E,16865,Rostand,47.434367,-0.5140740000000001,0,Europe/Paris,1
CHATEL-E,24167,Châtelain,47.483169,-0.5141820000000001,0,Europe/Paris,1
ESPACE5B,6519,Espace Anjou,47.467591,-0.5204839999999999,0,Europe/Paris,1
MEUNIE-E,145892,Meuniers,47.495017,-0.431831,0,Europe/Paris,1
BUCHET-E,306514,Buchetière,47.559747,-0.428126,0,Europe/Paris,0
BEAUMAN,27618,Beaumanoir,47.451543,-0.5105229999999999,0,Europe/Paris,1
1QUAI,,Le Quai,47.472286,-0.5664480000000001,0,Europe/Paris,1
SAICRO-E,20081,Ste-Croix,47.469864,-0.5549630000000001,0,Europe/Paris,1
MARAIS-E,676375,Marais,47.450293,-0.5042000000000001,0,Europe/Paris,1
JOACH,905575,Lycée Joachim du Bellay,47.476439,-0.5476660000000001,0,Europe/Paris,1
SOULBE-E,779714,Beaurepaire Soulaire,47.556521,-0.5556310000000001,0,Europe/Paris,0
GUICHERE,799387,Guichardière,47.584142,-0.4968420000000001,0,Europe/Paris,1
DSCASUB,661157,Descazeaux,47.476912,-0.5673110000000001,0,Europe/Paris,0
LAPOIN-E,17596,La Pointe,47.409872,-0.6203100000000001,0,Europe/Paris,1
MON1,7834,Mongazon,47.460963,-0.5286720000000001,0,Europe/Paris,1
HOTDIE-E,22507,Hôtel Dieu,47.479368,-0.5610840000000001,0,Europe/Paris,1
PAPERIE,25531,Paperie,47.468722,-0.5070360000000002,0,Europe/Paris,1
1DUNA,,Allonneau-Dunant,47.483927,-0.5268110000000001,0,Europe/Paris,1
LEFEVR-E,16289,Lefèvre,47.443181,-0.4891660000000001,0,Europe/Paris,1
BRIOLL-E,24952,Briollay Mairie,47.563506,-0.5073130000000001,0,Europe/Paris,0
RANGEA-E,28686,Rangeardière,47.410148,-0.6228020000000001,0,Europe/Paris,1
CHMARTYR,1237,Champ des Martyrs,47.489855,-0.5830860000000001,0,Europe/Paris,1
COUTAR-E,268168,Coutardière,47.468454,-0.407529,0,Europe/Paris,0
LESSAR-E,23657,Les Essarts,47.469187,-0.7368000000000001,0,Europe/Paris,0
CRESSO-E,191441,Cressonnière,47.474326,-0.4923400000000001,0,Europe/Paris,0
VOISINAY,896110,Voisinay,47.418918,-0.345394,0,Europe/Paris,0
MONTAI-E,19218,Montaigne,47.469498,-0.5315870000000001,0,Europe/Paris,1
PRINCE-E,25212,Princé,47.389561,-0.5258870000000001,0,Europe/Paris,0
SEMARD,27110,Gares Sémard,47.46454,-0.5600870000000001,0,Europe/Paris,1
PELUAU-E,22717,Peluau,47.489426,-0.5677920000000001,0,Europe/Paris,1
GABORI-E,375265,Gaboriau,47.563308,-0.6758150000000001,0,Europe/Paris,1
CLOSVI-E,20765,Clos de la Vigne,47.441641,-0.6112580000000001,0,Europe/Paris,1
BLERIOT,22166,Blériot,47.485973,-0.5636430000000001,0,Europe/Paris,1
CLAIE,3838,Claie,47.460763,-0.6271120000000001,0,Europe/Paris,0
BELAIR-E,15243,Bel Air,47.529907,-0.6073030000000001,0,Europe/Paris,1
MAUFIN-E,17293,Maufinée,47.502602,-0.5888210000000001,0,Europe/Paris,1
GAREPAPI,16316,Gares Papin,47.464917,-0.5577610000000001,0,Europe/Paris,1
ITALIE,9717,Italie,47.524529,-0.6023750000000001,0,Europe/Paris,1
GENDRO-E,,Gendron,47.437757,-0.5267970000000001,0,Europe/Paris,1
GENIE-E,570531,Génie,47.458164,-0.5638620000000001,0,Europe/Paris,1
MONPROF.,29382,Monprofit,47.474262,-0.5666070000000001,0,Europe/Paris,1
SMATGD-E,737761,Grande Rue,47.41104,-0.333323,0,Europe/Paris,0
DJEANCAR,,Jean Carmet -reporté-,47.400758,-0.5404520000000002,0,Europe/Paris,0
AQUITA-E,14482,Aliénor d'Aquitaine,47.463023,-0.6150730000000001,0,Europe/Paris,1
CHATELAI,23220,Châtelain,47.482844,-0.5147350000000001,0,Europe/Paris,1
ECLATERI,28347,Éclateries,47.451199,-0.5197330000000001,0,Europe/Paris,1
PASQUEL,922466,Pasquelerie,47.510651,-0.353188,0,Europe/Paris,0
BELAIR,17130,Bel Air,47.529838,-0.6069730000000001,0,Europe/Paris,1
MORICI-E,60430,Moricière,47.485166,-0.357232,0,Europe/Paris,0
CLAUDE-E,14882,Claudel,47.449984,-0.5668069999999999,0,Europe/Paris,1
TOUSS2-E,137420,Toussaint Hodée,47.500832,-0.428807,0,Europe/Paris,0
TASSIG-E,10656,Pôle Tassigny,47.446522,-0.5372100000000001,0,Europe/Paris,1
ORMEAUX,17473,Ormeaux,47.479954,-0.5197380000000001,0,Europe/Paris,1
STSERGEU,,St-Serge Université,47.476656,-0.5520920000000001,0,Europe/Paris,1
PELEGL-E,21148,Pellouailles Église,47.521494,-0.443926,0,Europe/Paris,0
VILVEC-E,16488,Villevêque École,47.560886,-0.4214280000000001,0,Europe/Paris,0
1BEAU,,Beaussier,47.476478,-0.5992810000000001,0,Europe/Paris,1
FRATER,49164,Fraternité,47.491015,-0.5623710000000001,0,Europe/Paris,1
LESGARES,20210,Les Gares,47.465168,-0.5557900000000001,0,Europe/Paris,1
THOMASS,27878,Thomasserie,47.461762,-0.6253480000000001,0,Europe/Paris,1
TURMINIE,2038,Turminière,47.566668,-0.5456200000000001,0,Europe/Paris,0
VILLEN-E,12314,Villeneuve,47.508319,-0.434702,0,Europe/Paris,0
MINDIERE,800356,Mindière,47.44,-0.6304540000000001,0,Europe/Paris,0
PAQUERET,38080,Paquerette,47.48584,-0.6494780000000001,0,Europe/Paris,0
BARRA-E,690505,Barra,47.483822,-0.5637330000000002,0,Europe/Paris,1
SAVGARE,79863,Savennières Gare,47.381293,-0.6552140000000001,0,Europe/Paris,0
VALLO-E,21364,Vallon,47.463497,-0.6025810000000001,0,Europe/Paris,1
BBCAMT-E,,Belle-Beille Campus,47.47822,-0.6063120000000001,0,Europe/Paris,1
CRFRUX-E,10392,Croix des Frux,47.503348,-0.6909670000000001,0,Europe/Paris,0
LILAS-E,17216,Lilas,47.459544,-0.6630410000000001,0,Europe/Paris,0
FFAURE-E,13088,Félix Faure,47.485487,-0.5469390000000001,0,Europe/Paris,0
PIVERD-E,31587,Piverdière,47.437392,-0.6098290000000001,0,Europe/Paris,1
BAUNBR-E,58353,Château Briançon,47.503388,-0.351694,0,Europe/Paris,0
PATUREAU,20375,Patureaux,47.433815,-0.5280220000000001,0,Europe/Paris,1
GARDOT,27530,Gardot,47.468285,-0.5333530000000001,0,Europe/Paris,1
BANCHAIS,25147,Banchais,47.485298,-0.5121599999999999,0,Europe/Paris,1
FRANVI-E,13502,François Villon,47.433643,-0.5228550000000001,0,Europe/Paris,1
NOUE-E,25919,Nouelle,47.544871,-0.669649,0,Europe/Paris,1
RANGEARD,11014,Rangeardière,47.410112,-0.6229050000000002,0,Europe/Paris,1
2DUNA,,Allonneau-Dunant,47.48383,-0.5268430000000001,0,Europe/Paris,1
BSOLEIL,30366,Beau Soleil,47.426576,-0.7212570000000001,0,Europe/Paris,0
LACDMAIN,30379,Lac De Maine Nautique,47.461185,-0.5960299999999999,0,Europe/Paris,1
LEQUAI,15807,Le Quai,47.472359,-0.5667770000000001,0,Europe/Paris,1
GENDRIE,833019,Gendrie,47.498948,-0.324872,0,Europe/Paris,0
GERICAUL,9434,Géricault,47.460105,-0.5246040000000001,0,Europe/Paris,1
DEUCRO-E,45594,Deux-Croix,47.47503,-0.5288290000000001,0,Europe/Paris,1
CNFPT-E,32156,CNFPT,47.472295,-0.6001040000000001,0,Europe/Paris,1
DAGUEGLI,114161,Daguenière Église,47.419408,-0.436785,0,Europe/Paris,0
LESGAT-E,24961,Les Gas,47.514576,-0.6595750000000001,0,Europe/Paris,0
2DOUT,,Doutre,47.474111,-0.5607290000000001,0,Europe/Paris,1
BOISEP-E,617836,Bois d'Épinard,47.474442,-0.330299,0,Europe/Paris,0
MICHELET,28118,Michelet,47.463532,-0.5455090000000001,0,Europe/Paris,1
CRESSONN,407603,Cressonnière,47.474331,-0.4920680000000001,0,Europe/Paris,0
VEAUDO-E,53114,Veau Doré,47.476428,-0.413401,0,Europe/Paris,0
2ELYS,,Élysée,47.473611,-0.5855359999999999,0,Europe/Paris,1
POLIGU-E,85187,Poliguet,47.494567,-0.397164,0,Europe/Paris,0
LETAND-E,13125,Letanduère,47.452407,-0.5532550000000001,0,Europe/Paris,1
HARAS,20835,Foch-Haras,47.467124,-0.5519360000000001,0,Europe/Paris,1
MAROTT-E,3203,Marottières,47.53627,-0.5686300000000001,0,Europe/Paris,0
MASSON,12311,Masson,47.53174,-0.5674940000000001,0,Europe/Paris,0
FRESNE,32041,Lycée Le Fresne,47.442418,-0.5836500000000001,0,Europe/Paris,0
ECOBAU-D,366802,Louise Michel,47.503093,-0.316221,0,Europe/Paris,0
AVRMAI-E,,Avrillé Mairie,47.504503,-0.5909310000000001,0,Europe/Paris,0
STAUBIN,22468,Foch-St-Aubin,47.468556,-0.5500320000000001,0,Europe/Paris,1
BAHONNEA,26142,Bahonneau,47.453189,-0.4832390000000001,0,Europe/Paris,1
PROUDHON,29327,Proudhon,47.461204,-0.603844,0,Europe/Paris,1
SOULEC-E,503218,Soulaines École,47.365765,-0.5212760000000001,0,Europe/Paris,0
MAROTTIE,10301,Marottières,47.536321,-0.5689070000000001,0,Europe/Paris,0
BMOTTE,25850,Belle Motte,47.531091,-0.5165750000000001,0,Europe/Paris,1
DEBUSS31,24570,Collège Debussy,47.4885,-0.5159130000000001,0,Europe/Paris,0
VILVEQ-E,14981,Villevêque Mairie,47.559368,-0.422071,0,Europe/Paris,0
PRUNIERS,43576,Pruniers,47.44906,-0.6026960000000001,0,Europe/Paris,1
1STGI,23494,St-Gilles,47.506512,-0.5895390000000001,0,Europe/Paris,1
VAILLANT,14457,Vaillante,47.485283,-0.5335569999999999,0,Europe/Paris,1
GILLIE-E,13563,Gillier,47.474962,-0.5253170000000001,0,Europe/Paris,1
BOISRAME,22086,Boisramé,47.478299,-0.5847990000000001,0,Europe/Paris,1
ESPJEU-E,1080,Maison de la Danse,47.488519,-0.5852990000000001,0,Europe/Paris,1
CHAMBOUR,5924,Champboureau,47.396552,-0.6367170000000001,0,Europe/Paris,0
MONNAIE,643212,Monnaie,47.445158,-0.5124109999999999,0,Europe/Paris,0
MORELE-E,4569,Morellerie,47.451234,-0.5448200000000001,0,Europe/Paris,1
JAUDETTE,22121,Jaudette,47.463652,-0.4902180000000001,0,Europe/Paris,1
DIX8JUI,2997,18-juin,47.529528,-0.6181280000000001,0,Europe/Paris,1
BRARDIER,974048,Brardière,47.582185,-0.4941210000000001,0,Europe/Paris,0
CHABOL-E,963145,Chabolais,47.500921,-0.5077690000000001,0,Europe/Paris,1
HRECUL-E,1885,Haute de Reculée,47.485014,-0.5529120000000001,0,Europe/Paris,1
RIPOLLE,22179,Ripollet,47.510907,-0.5888099999999999,0,Europe/Paris,1
ALLUME-E,6636,Allumettes,47.445116,-0.5026370000000001,0,Europe/Paris,1
PETVIVIE,710948,Petit Vivier,47.44573,-0.6059080000000001,0,Europe/Paris,1
LOUPIN-E,26592,Loupinot,47.424594,-0.5526570000000001,0,Europe/Paris,1
LAGRAN-E,11339,La Grange,47.504497,-0.6368040000000001,0,Europe/Paris,0
DUMNACUS,23298,Dumnacus,47.486392,-0.5920770000000001,0,Europe/Paris,0
JOACHIM,890943,Lycée Joachim du Bellay,47.47651,-0.5473700000000001,0,Europe/Paris,0
CLOS9-E,19966,Clos Neuf,47.42249,-0.5655390000000001,0,Europe/Paris,1
SOUCELLE,1423,Soucelles Centre,47.569446,-0.420554,0,Europe/Paris,0
CLODOR-E,17722,Clos Doreau,47.496336,-0.425149,0,Europe/Paris,0
HOTDIEU,4414,Hôtel Dieu,47.479199,-0.5593380000000001,0,Europe/Paris,1
PARC,2377,Roncevaux,47.486741,-0.5986960000000001,0,Europe/Paris,0
CARREAUX,25276,Carreaux,47.512565,-0.4719440000000001,0,Europe/Paris,1
MAJUIN5B,39157,Maréchal Juin,47.449933,-0.5678790000000001,0,Europe/Paris,1
BEAUVA-E,11101,Beauval,47.451682,-0.5512640000000001,0,Europe/Paris,1
DURELLE2,489663,Durellerie Patis,47.4311,-0.6417380000000001,0,Europe/Paris,0
I.U.T.-E,844184,IUT,47.480551,-0.6029679999999999,0,Europe/Paris,1
INRA,13650,INRAE,47.474703,-0.6111220000000001,0,Europe/Paris,1
CHAPEL-E,5633,Chapelles,47.468668,-0.383012,0,Europe/Paris,0
PROUDH-E,30177,Proudhon,47.461657,-0.6034110000000001,0,Europe/Paris,1
VANDE-E,90420,Vandellant,47.478277,-0.5208310000000002,0,Europe/Paris,1
BSOLEI-E,12061,Beau Soleil,47.426713,-0.72135,0,Europe/Paris,0
CHAMAIRE,52310,Champ de l'Aire,47.437255,-0.6150139999999999,0,Europe/Paris,1
VALOR-E,32097,Val d'Or,47.484836,-0.5853850000000002,0,Europe/Paris,1
BOULAIE,565204,Boulaie,47.494179,-0.404213,0,Europe/Paris,0
CHENAIE,543770,Chenaie,47.547969,-0.4742940000000001,0,Europe/Paris,0
PONTSCEM,14271,Ponts-de-Cé Mairie,47.425251,-0.5252370000000001,0,Europe/Paris,1
COUPER-E,,Couperin,47.468528,-0.5278980000000001,0,Europe/Paris,1
ANBRUE-E,648185,André Bruel,47.526672,-0.4680060000000001,0,Europe/Paris,1
LHOIRI-D,,L'Hoirie,47.467056,-0.6182620000000001,0,Europe/Paris,0
FRCEVE-E,15734,Cevert,47.446567,-0.5436350000000001,0,Europe/Paris,1
LAFAUV-E,17497,La Fauvelais,47.451961,-0.5121289999999999,0,Europe/Paris,1
TRELCHEV,91830,Chevallerie,47.446107,-0.4586990000000001,0,Europe/Paris,0
ZIBEAU-E,19670,ZI Beaucouzé,47.459969,-0.6192900000000001,0,Europe/Paris,0
BOUCHEM,9302,Bouchemaine Centre,47.421647,-0.6103860000000001,0,Europe/Paris,1
DEBEAUVO,20135,De Beauvoir,47.528946,-0.6146380000000001,0,Europe/Paris,0
AVENEU-E,3623,Avenue de l'Europe,47.528212,-0.5947990000000001,0,Europe/Paris,1
BODINI-E,298774,Bodinière,47.585439,-0.447124,0,Europe/Paris,0
BUISBE-E,234869,Buissons Belles,47.447951,-0.421034,0,Europe/Paris,0
MONTEC-E,16464,Montéclair,47.464406,-0.6047970000000001,0,Europe/Paris,1
FMAURIAC,169314,Mauriac,47.455138,-0.4716260000000001,0,Europe/Paris,1
MONTRJ-E,,Montrejeau,47.467918,-0.5213940000000001,0,Europe/Paris,0
AULNAI-E,172702,Aulnaies,47.586835,-0.439987,0,Europe/Paris,0
BOURSE,18560,Bourse,47.442828,-0.4954400000000001,0,Europe/Paris,0
LEVRAU-E,,Levrauderies,47.466653,-0.4686490000000001,0,Europe/Paris,0
1JVIL,20509,Jean Vilar,47.445072,-0.5623260000000001,0,Europe/Paris,1
INTREP-E,8993,Intrépide,47.44735,-0.5522960000000001,0,Europe/Paris,1
AUVERGNE,2306,Auvergne,47.489505,-0.5308240000000001,0,Europe/Paris,1
BASCHESN,652997,Basse Chesnaie,47.573899,-0.6774360000000001,0,Europe/Paris,0
BELLVUTR,30214,Bellevue,47.448196,-0.5068840000000001,0,Europe/Paris,1
FO-LOR-R,170,Foch-Maison Bleue,47.469676,-0.5489889999999999,0,Europe/Paris,1
JE23-E,11485,Jean XXIII,47.44852,-0.5638110000000001,0,Europe/Paris,1
BRAIBO-E,348073,Croix de Bois,47.449073,-0.425358,0,Europe/Paris,0
EBEAUP-E,9811,Ébeaupin,47.464415,-0.6248100000000001,0,Europe/Paris,0
LESROS-E,25672,Les Roses,47.426867,-0.5516270000000001,0,Europe/Paris,1
BUCHETIE,736317,Buchetière,47.559684,-0.428279,0,Europe/Paris,0
PCOUBE-E,6322,Coubertin,47.462452,-0.5323140000000001,0,Europe/Paris,0
STJOSEP,23613,St-Joseph,47.464913,-0.5412450000000001,0,Europe/Paris,1
2VERN,13983,Verneau,47.492517,-0.5671620000000001,0,Europe/Paris,1
BOHACE-E,374732,La Cendreuse,47.422276,-0.385158,0,Europe/Paris,0
GASPALON,21485,Gaspalon,47.453286,-0.5069520000000001,0,Europe/Paris,1
ESPAJEUN,28726,Maison de la Danse,47.488869,-0.5848719999999999,0,Europe/Paris,1
GASNIER,21628,Gasnier,47.48522,-0.5718790000000001,0,Europe/Paris,1
PLOTTI-E,90896,Plottière,47.522402,-0.6107250000000001,0,Europe/Paris,1
COTTAGE,4531,Cottage,47.494799,-0.5153390000000001,0,Europe/Paris,1
PINSON-E,24131,Pinsons,47.472569,-0.6303130000000001,0,Europe/Paris,0
ANAFRAN,345518,Anatole France,47.531085,-0.6137230000000001,0,Europe/Paris,1
ZIBEAUC,23205,ZI Beaucouzé,47.460025,-0.6193390000000001,0,Europe/Paris,0
PARADIS,,Paradis,47.406005,-0.6942980000000001,0,Europe/Paris,0
PIGEONDO,530735,Pigeon d'Or,47.469139,-0.3893480000000001,0,Europe/Paris,0
LAVOIR,327,Lavoir,47.44063,-0.4988640000000001,0,Europe/Paris,1
AUBRIA-E,16914,Aubriais,47.51575,-0.6676930000000001,0,Europe/Paris,0
MORLIERE,17581,Morlière,47.461534,-0.4825120000000001,0,Europe/Paris,1
1FARC,,Farcy,47.47327,-0.5773770000000001,0,Europe/Paris,1
JEANROST,369358,Collège Jean Rostand,47.448817,-0.5011409999999999,0,Europe/Paris,0
DLECOTEA,,Le Coteau -reporté-,47.397251,-0.5452870000000001,0,Europe/Paris,0
MUSSET-E,22824,Musset,47.473624,-0.5387200000000001,0,Europe/Paris,1
MAIRAVR,11971,Avrillé Mairie,47.504486,-0.5899390000000001,0,Europe/Paris,1
PIGEON-E,33819,Pigeon d'Or,47.469058,-0.389172,0,Europe/Paris,0
RENOIR-E,478423,Auguste Renoir,47.535998,-0.6184250000000001,0,Europe/Paris,1
BROCHONS,294849,Brochons,47.421952,-0.327366,0,Europe/Paris,0
GALLIE-E,12457,Europe,47.486208,-0.5289740000000001,0,Europe/Paris,0
DOYENN-E,10951,Doyenné,47.490584,-0.5322060000000001,0,Europe/Paris,1
MALAQUAI,38447,Malaquais,47.444369,-0.4903700000000001,0,Europe/Paris,0
FACUL-SS,7400,Faculté,47.479322,-0.5509890000000001,0,Europe/Paris,1
ROCHEFOU,6793,La Rochefoucauld,47.478851,-0.5569720000000001,0,Europe/Paris,1
RTSORG-E,793058,Route de Sorges,47.432648,-0.4908730000000001,0,Europe/Paris,0
CAMUS.05,9583,Camus,47.485242,-0.5758730000000001,0,Europe/Paris,1
CSARTH-E,2380,Croix de Sarthe,47.540117,-0.5699230000000001,0,Europe/Paris,0
PETLAN-E,13939,Petite Lande,47.554392,-0.5814710000000001,0,Europe/Paris,0
CRVESC-E,485025,Croix Verte,47.474234,-0.35475,0,Europe/Paris,0
CLBEURRE,266602,Clos au Beurre,47.390948,-0.5629680000000001,0,Europe/Paris,1
FENEU-E,588,Feneu Église,47.569817,-0.594215,0,Europe/Paris,1
GDMAINE,14612,Grand Maine,47.467608,-0.5930250000000001,0,Europe/Paris,1
ANDALA-E,587106,Grand Launay,47.461574,-0.38755,0,Europe/Paris,0
SARRCIME,1249,Sarrigné Cimetière,47.501566,-0.3877070000000001,0,Europe/Paris,1
PINELIER,808769,Pinelier,47.523331,-0.7436370000000001,0,Europe/Paris,0
LENOTRE,,Le Nôtre,47.476415,-0.6071540000000001,0,Europe/Paris,1
2HOPA,13445,CHU-Hôpital,47.481321,-0.5540550000000001,0,Europe/Paris,1
LE.CLO-E,890179,Le Clos,47.424655,-0.427995,0,Europe/Paris,0
LESECOTS,19016,Les Ecots,47.475558,-0.6955270000000001,0,Europe/Paris,0
2MONP,,Monplaisir,47.4889,-0.5269110000000001,0,Europe/Paris,1
ROMA-AD,28445,Roche Morna,47.420236,-0.5814780000000001,0,Europe/Paris,0
CORNMA-E,575617,Corné Mairie,47.470907,-0.350614,0,Europe/Paris,0
MONCEAU,698763,Monceau,47.472424,-0.389729,0,Europe/Paris,0
PISCJUIG,6185,Piscine C. Muffat,47.534039,-0.6165929999999999,0,Europe/Paris,1
LABRUY-E,15826,La Bruyère,47.476457,-0.5733450000000001,0,Europe/Paris,1
EBLE,18451,Eblé,47.455317,-0.5663190000000001,0,Europe/Paris,1
ECLATE-E,15952,Éclateries,47.451073,-0.5199820000000001,0,Europe/Paris,1
DELACROI,5132,Delacroix,47.454901,-0.5286270000000001,0,Europe/Paris,1
LORRAIN1,20636,Lorraine - Foch-Maison Bleue,47.47022,-0.5477610000000001,0,Europe/Paris,1
BICHON.,7036,Bichon,47.479329,-0.5648510000000001,0,Europe/Paris,1
BRGPAI-E,12036,Bourg de Paille,47.474869,-0.6246660000000001,0,Europe/Paris,1
CROISETT,28700,Croisette,47.450933,-0.6001210000000001,0,Europe/Paris,1
SPORBRIO,8372,Briollay Stade,47.561726,-0.5053500000000001,0,Europe/Paris,0
PREVERT,646592,Prévert,47.487774,-0.5975300000000001,0,Europe/Paris,0
LAFA8-E,6452,La Fayette,47.460311,-0.5548520000000001,0,Europe/Paris,1
CLIANJ-E,11590,Neruda,47.445325,-0.5411330000000001,0,Europe/Paris,1
2BBCA,,Belle-Beille Campus,47.477979,-0.6031660000000001,0,Europe/Paris,1
OREEBO-E,69108,L'Orée des Bois,47.508413,-0.37897,0,Europe/Paris,0
ROCHMAR,573094,Roche Marotte,47.447421,-0.5191730000000001,0,Europe/Paris,0
HJOU32,18910,Haie Joulain,47.517582,-0.4626560000000001,0,Europe/Paris,0
GAUBOU-E,23234,Gaubourgs,47.449319,-0.5731380000000001,0,Europe/Paris,0
ITALIE-E,13083,Italie,47.524767,-0.6019980000000001,0,Europe/Paris,1
GRENOUIL,343073,Grenouille,47.502958,-0.3282590000000001,0,Europe/Paris,0
THULEA-E,18543,Thuleau,47.476548,-0.5280930000000001,0,Europe/Paris,1
TRELAZE,25775,Quantinière,47.458759,-0.4744450000000001,0,Europe/Paris,1
MVIGNE,358268,Marcel Vigne,47.475012,-0.5821920000000002,0,Europe/Paris,1
HAUTPRES,2552,Haut Pressoir,47.453192,-0.5384810000000001,0,Europe/Paris,1
FIEGEN-E,24053,Fief Gentil,47.533279,-0.5260500000000001,0,Europe/Paris,0
MERMOZ,21926,Collège Mermoz,47.451897,-0.5668050000000001,0,Europe/Paris,0
BOURG,25980,Bourg,47.590709,-0.5553650000000001,0,Europe/Paris,0
MONPRO-E,29694,Monprofit,47.474342,-0.5666960000000001,0,Europe/Paris,1
1AARD,5009,Avrillé - Ardenne,47.511486,-0.5960120000000001,0,Europe/Paris,1
WBRO-E,13554,Bois du Roy,47.499763,-0.5830270000000001,0,Europe/Paris,1
CHANTRI,,Chanterie,47.480009,-0.4941560000000001,0,Europe/Paris,1
BRIOLLAY,14848,Briollay Mairie,47.563657,-0.5077050000000001,0,Europe/Paris,0
PRUNIE-E,27721,Pruniers,47.449315,-0.6025290000000001,0,Europe/Paris,1
PROVIN-E,17083,Provins,47.492562,-0.5020450000000001,0,Europe/Paris,1
TERNEI-E,3391,Ternière,47.505693,-0.5932560000000001,0,Europe/Paris,1
AUTHION,22482,Authion,47.431458,-0.5284750000000001,0,Europe/Paris,1
MURIER-E,219217,Mûrier,47.514117,-0.376544,0,Europe/Paris,0
JUFERRY,32650,Jules Ferry,47.466377,-0.4987210000000001,0,Europe/Paris,1
STEMELAI,787343,Ste-Melaine Centre,47.370466,-0.4966500000000001,0,Europe/Paris,0
JEAN-23,791499,Jean XXIII,47.448324,-0.563741,0,Europe/Paris,1
HELBO-E,807048,Hélène Boucher,47.486725,-0.4897750000000001,0,Europe/Paris,1
1CAPU,29904,Capucins,47.486888,-0.5552330000000001,0,Europe/Paris,1
VIRELE-E,976747,Virelet,47.478638,-0.34019,0,Europe/Paris,0
TALET-E,453380,Talet,47.476182,-0.5476940000000001,0,Europe/Paris,1
ARCAD-E,17259,Arcades,47.507205,-0.5165910000000001,0,Europe/Paris,0
MACURIE,12294,Marie Curie,47.433308,-0.5165550000000001,0,Europe/Paris,1
CCMOLI-E,,Centre Cial Mollière,47.460777,-0.6174809999999999,0,Europe/Paris,1
RTEPAR-E,19337,Route de Paris,47.489743,-0.507372,0,Europe/Paris,1
BOSCH-E,63542,Bois Rinier,47.476432,-0.4973980000000001,0,Europe/Paris,1
PELSTA-E,22112,Pellouailles Stade,47.523349,-0.438834,0,Europe/Paris,0
CORNCI-E,535321,Corné Cimetière,47.473545,-0.346383,0,Europe/Paris,1
RUCOURTE,224549,Rue Courte,47.41968,-0.32878,0,Europe/Paris,0
DAGNET-E,,Daguenet,47.474758,-0.5279730000000001,0,Europe/Paris,1
BOISABBE,1559,Bois L'Abbé,47.490304,-0.5142250000000002,0,Europe/Paris,1
MASTEL-E,17386,Mastelle,47.529387,-0.5919880000000001,0,Europe/Paris,1
ALLUMETT,15447,Allumettes,47.44527,-0.5023200000000001,0,Europe/Paris,1
VILLENEU,25376,Villeneuve,47.508334,-0.435058,0,Europe/Paris,0
BELPOULE,21306,Belle Poule,47.427888,-0.5271540000000001,0,Europe/Paris,0
BOHASA-E,429073,Chemin Salette,47.424605,-0.389309,0,Europe/Paris,0
MUTUAL-E,25011,Mutualité,47.455262,-0.5408170000000001,0,Europe/Paris,1
CHAUVE,60539,La Chauvelaie,47.436533,-0.5843720000000001,0,Europe/Paris,0
TOURAI-E,25515,Touraine,47.539126,-0.435316,0,Europe/Paris,0
BRETEA-E,89029,Breteau,47.573645,-0.437244,0,Europe/Paris,0
CHAGAL-E,675868,Chagall,47.560152,-0.6775820000000001,0,Europe/Paris,0
GRCARREA,7000,Arena Loire,47.44346,-0.4786900000000001,0,Europe/Paris,1
BODINIER,906273,Bodinière,47.585453,-0.447282,0,Europe/Paris,0
DESCAZ-E,25148,Descazeaux,47.476786,-0.5661130000000001,0,Europe/Paris,1
SARRIGNE,31023,Les Plantes,47.502758,-0.378761,0,Europe/Paris,1
LANGLA-E,,Langlade,47.467679,-0.5293770000000001,0,Europe/Paris,0
BRAINARG,933848,Crémaillère d'Argent,47.465321,-0.433171,0,Europe/Paris,0
CHABLA-E,10390,Champs Blancs,47.517352,-0.4752160000000001,0,Europe/Paris,1
GAUTIER,538212,Pas Gautier,47.471528,-0.409564,0,Europe/Paris,0
GAUBLOCA,18625,Gaubourgs,47.448383,-0.5723880000000001,0,Europe/Paris,1
PYRA10-E,31499,Pyramide,47.440078,-0.4887330000000001,0,Europe/Paris,0
BOISNR-E,158612,Boisnerie,47.51158,-0.360022,0,Europe/Paris,1
LTACHON,10237,Soulaines Centre,47.365002,-0.5251490000000001,0,Europe/Paris,0
BAUDRAI,19950,Baudrairie,47.437909,-0.5071030000000001,0,Europe/Paris,1
RASPAIL,3803,Raspail,47.474927,-0.570096,0,Europe/Paris,0
1LAFA,31950,La Fayette,47.460812,-0.5547230000000001,0,Europe/Paris,1
GGESSAND,18970,George Sand,47.433139,-0.5196210000000001,0,Europe/Paris,1
HULLET-E,33384,Hulleteries,47.46546,-0.7209080000000001,0,Europe/Paris,0
WBROY,9573,Bois du Roy,47.499761,-0.5834140000000001,0,Europe/Paris,1
CORNCIME,19500,Corné Cimetière,47.47361,-0.3463820000000001,0,Europe/Paris,1
GALLIENI,16963,Europe,47.486083,-0.5286960000000001,0,Europe/Paris,0
FRESN37,856633,Le Fresne,47.442414,-0.5835050000000001,0,Europe/Paris,0
INDUSTRI,11352,Industrie,47.490268,-0.5229540000000001,0,Europe/Paris,1
ESATBEJO,241355,ESAT Béjonnières,47.481282,-0.5101150000000001,0,Europe/Paris,0
1JMOU,4159,Jean Moulin,47.490467,-0.5521950000000001,0,Europe/Paris,1
ATOLL,21638,L'Atoll-Vallin,47.483026,-0.6322540000000001,0,Europe/Paris,0
CALAIS,775835,Calais,47.461997,-0.4325570000000001,0,Europe/Paris,0
CLOSDUVA,900000,Clos du Vau,47.577249,-0.4581310000000001,0,Europe/Paris,0
PINEAU-E,330880,Pineaudière,47.594116,-0.5382190000000001,0,Europe/Paris,0
LEOLA2-E,5985,Léo Lagrange,47.447816,-0.5103520000000001,0,Europe/Paris,1
HUETTERI,899997,Huetterie,47.459257,-0.4783390000000001,0,Europe/Paris,0
PELLERI,10802,Pellerinière,47.460693,-0.4882330000000001,0,Europe/Paris,1
RIDER,410494,Ridereau,47.477953,-0.39125,0,Europe/Paris,0
ABI,180,Avicenne,47.481296,-0.6884100000000001,0,Europe/Paris,0
LETAND16,27068,Letanduère,47.452805,-0.5531740000000001,0,Europe/Paris,1
AQVI-D5B,96211,AquaVita,47.493497,-0.5655280000000001,0,Europe/Paris,1
1FMBL,11327,Foch-Maison Bleue,47.468992,-0.5497560000000001,0,Europe/Paris,1
2CAPU,3726,Capucins,47.486819,-0.555139,0,Europe/Paris,1
BOIFOU,727425,Bois du Fouilloux,47.436247,-0.7000410000000001,0,Europe/Paris,1
LASOURCE,,La Source,47.477733,-0.6392930000000001,0,Europe/Paris,1
GRANDMON,11878,Grandmont,47.487549,-0.5875930000000001,0,Europe/Paris,1
MORELLER,495,Morellerie,47.451387,-0.5449360000000001,0,Europe/Paris,1
SAULAIE,530410,Saulaie,47.528964,-0.4878700000000001,0,Europe/Paris,0
LAROCHE,5358,La Roche,47.4581,-0.6569340000000001,0,Europe/Paris,0
MONOD,15527,Monod,47.478725,-0.6366410000000001,0,Europe/Paris,1
LECORB-E,1502,Le Corbusier,47.485453,-0.6308859999999999,0,Europe/Paris,1
STTERESE,2068,Ste-Thérèse,47.480857,-0.5643290000000001,0,Europe/Paris,1
ANDALAUN,544772,Grand Launay,47.461286,-0.388107,0,Europe/Paris,0
LABROSSE,11507,La Brosse,47.532539,-0.5220990000000001,0,Europe/Paris,0
BARRA,21480,Barra,47.483717,-0.5639300000000002,0,Europe/Paris,1
LORPLM,22199,L'Orée,47.54263,-0.6724040000000001,0,Europe/Paris,0
PRINCE,31844,Princé,47.389523,-0.5257230000000001,0,Europe/Paris,0
SCANIA,13638,Scania,47.493116,-0.5223510000000001,0,Europe/Paris,0
GRILLONN,594226,Grillonnière,47.540477,-0.5823880000000001,0,Europe/Paris,1
JEROSTAN,10465,Rostand,47.434262,-0.5137640000000001,0,Europe/Paris,1
CHALOUER,16319,Chalouère,47.481349,-0.5367750000000001,0,Europe/Paris,1
GRESILLE,20154,Grésillé,47.459643,-0.6055010000000001,0,Europe/Paris,1
CERFEU-E,938721,Cerfeuil,47.477777,-0.6352840000000001,0,Europe/Paris,0
MARIAN-E,28799,Marianne,47.450058,-0.5311000000000001,0,Europe/Paris,1
SAVENNIE,25242,Savennières Mail,47.383363,-0.6557920000000002,0,Europe/Paris,0
BOHABRAI,38658,Route de Brain,47.421427,-0.399269,0,Europe/Paris,0
ZOLA,477388,Zola,47.528837,-0.6112540000000001,0,Europe/Paris,1
GUILLAU,785925,Guillaumière,47.533051,-0.6718430000000001,0,Europe/Paris,0
CLAIE-E,360007,Claie,47.460717,-0.6270380000000001,0,Europe/Paris,1
SECUSOCI,26877,Sécurité Sociale,47.46912,-0.5401880000000001,0,Europe/Paris,1
CHABLANC,9247,Champs Blancs,47.517229,-0.4752630000000001,0,Europe/Paris,1
DAGUVA-E,863802,Val d'Authion,47.419284,-0.428108,0,Europe/Paris,0
FROMIO-E,678514,Fromioux,47.509993,-0.7168679999999999,0,Europe/Paris,0
CHAUMI-E,12609,Chaumières,47.52444,-0.5233139999999999,0,Europe/Paris,1
MEMBALZA,949595,École Balzac,47.557005,-0.6720860000000001,0,Europe/Paris,0
INTERMIL,3434,Intermarché,47.454588,-0.5348020000000001,0,Europe/Paris,1
GRESIL-E,,Grésillé,47.459628,-0.6057380000000001,0,Europe/Paris,1
REPUBL-E,6777,République,47.471694,-0.5538590000000001,0,Europe/Paris,1
ECUILL,3505,Ecuillé Mairie,47.616506,-0.5609670000000001,0,Europe/Paris,0
MONTCA-E,18547,Mont Cassin,47.447152,-0.5695760000000001,0,Europe/Paris,1
1PATT,,Patton,47.473358,-0.5925580000000001,0,Europe/Paris,1
3BBCA,,Belle-Beille Campus,47.478026,-0.6031360000000001,0,Europe/Paris,1
MASSON-E,16344,Masson,47.532101,-0.5677670000000001,0,Europe/Paris,0
GDPERI-E,4875,Grand Périgné,47.473909,-0.6146590000000001,0,Europe/Paris,1
FORGES-E,1732,Les Forges,47.386304,-0.6452290000000001,0,Europe/Paris,0
DUREL2-E,631634,Durellerie Patis,47.431119,-0.6418690000000001,0,Europe/Paris,0
LABUISSA,24161,La Buissaie,47.39614,-0.5520210000000001,0,Europe/Paris,1
GUERAN-E,12246,Guérandais,47.527255,-0.7484800000000001,0,Europe/Paris,0
LOUET,10203,Louet,47.412223,-0.523611,0,Europe/Paris,0
JEANZAY,602684,Collège Jean Zay,47.529674,-0.6075960000000001,0,Europe/Paris,0
TOUSSAI2,962307,Toussaint Hodée,47.500816,-0.428918,0,Europe/Paris,0
LACOUD-E,19006,La Coudre,47.460484,-0.7103270000000002,0,Europe/Paris,1
LOIRE,14252,Loire,47.418758,-0.5233560000000002,0,Europe/Paris,1
VOLNEY,25948,Volney,47.460438,-0.5380130000000001,0,Europe/Paris,1
GIROLLES,,Girolles,47.584514,-0.41285,0,Europe/Paris,0
SPOT-E,914780,Germaine Tillion,47.536742,-0.6279169999999999,0,Europe/Paris,1
JEBOUIN,43885,Jean Bouin,47.458885,-0.5329810000000001,0,Europe/Paris,1
GROLLIER,29484,Grolière,47.353945,-0.5274560000000001,0,Europe/Paris,0
LAMAILLE,424217,Maillée,47.485065,-0.391433,0,Europe/Paris,0
BEAULI-E,12880,Beaulieu,47.495464,-0.43667,0,Europe/Paris,0
GRILLO-E,198884,Grillonnière,47.540367,-0.5823750000000001,0,Europe/Paris,1
LOHUIT,5526,Lorraine,47.470224,-0.5471490000000001,0,Europe/Paris,1
PINEAUDI,370444,Pineaudière,47.594372,-0.5381850000000001,0,Europe/Paris,0
OFFTOU-E,3776,Office de Tourisme,47.469181,-0.5575850000000001,0,Europe/Paris,1
LAJANVRI,29429,Janvrie,47.504017,-0.6996540000000001,0,Europe/Paris,0
DUBELL-2,646719,Du Bellay,47.492208,-0.5133920000000001,0,Europe/Paris,1
LAREU-E,13697,La Reux,47.46941,-0.5104109999999999,0,Europe/Paris,1
MILLCO-E,18612,Millot,47.456762,-0.5332800000000001,0,Europe/Paris,0
ESA-E,19309,ESA,47.458957,-0.5453540000000001,0,Europe/Paris,1
GOURON-E,1177,Gouronnières,47.483126,-0.5693710000000001,0,Europe/Paris,1
FARDEAU,,Fardeau,47.582649,-0.420554,0,Europe/Paris,0
RIDEREAU,567791,Ridereau,47.477937,-0.391282,0,Europe/Paris,0
PARCINDU,775442,L'Épervière,47.506862,-0.5090030000000001,0,Europe/Paris,0
SAVARY-E,22138,Savary,47.47347,-0.5413240000000001,0,Europe/Paris,1
GDPRES-E,18745,Grand Pressoir,47.399489,-0.5281670000000001,0,Europe/Paris,0
ARCEAU,15889,Arceau,47.471079,-0.5197830000000001,0,Europe/Paris,1
PERUSSAI,3238,Pérussaie,47.466084,-0.59635,0,Europe/Paris,1
MORICIER,359213,Moricière,47.485096,-0.357342,0,Europe/Paris,0
GUILL-E,484479,Guillaumière,47.533142,-0.6717340000000001,0,Europe/Paris,0
TANCELL,29482,Tancellerie,47.516121,-0.6634760000000001,0,Europe/Paris,0
LOUET-E,605456,Louet,47.412435,-0.5238070000000001,0,Europe/Paris,1
GAUBOUR5,29955,Gaubourgs,47.447972,-0.5724480000000001,0,Europe/Paris,1
MALBOIRE,671943,Malboire,47.481863,-0.414045,0,Europe/Paris,0
AUBRIAIS,18000,Aubriais,47.515797,-0.6679349999999999,0,Europe/Paris,0
BRASSENS,351,Brassens,47.494139,-0.5864390000000002,0,Europe/Paris,1
TROIPA-E,22352,Trois Paroisses,47.441772,-0.5346700000000001,0,Europe/Paris,1
GEMMET-E,5906,Gemmetrie-ESAIP,47.463218,-0.4993210000000001,0,Europe/Paris,1
AULNAIES,193602,Aulnaies,47.586747,-0.4399370000000001,0,Europe/Paris,0
DOLANT-E,10427,Dolantines,47.527998,-0.445013,0,Europe/Paris,1
CESARGEO,66,César Geoffray,47.458645,-0.5459340000000001,0,Europe/Paris,1
PETPOR-E,6330,Petit Port,47.425732,-0.6097080000000001,0,Europe/Paris,1
2JE23,30963,Jean XXIII,47.448552,-0.5628440000000001,0,Europe/Paris,1
BANCST-E,2573,Banchais,47.485819,-0.5124680000000001,0,Europe/Paris,1
2HSAU,29280,Hauts de St-Aubin,47.492242,-0.5604600000000001,0,Europe/Paris,1
RAMON-E,285473,Ramon,47.486515,-0.5380440000000001,0,Europe/Paris,1
ANBRUEL,491458,André Bruel,47.526587,-0.4681240000000001,0,Europe/Paris,1
DAVIERES,463464,Davières,47.583186,-0.4778640000000001,0,Europe/Paris,0
INDUST-E,12168,Industrie,47.490015,-0.5228699999999999,0,Europe/Paris,1
CCADEA-E,3576,Croix Cadeau,47.520229,-0.6095510000000001,0,Europe/Paris,1
SEPSONET,12415,7 Sonnettes,47.486085,-0.514785,0,Europe/Paris,1
LAMARE-E,691886,La Mare,47.468348,-0.4652860000000001,0,Europe/Paris,0
1BRIS,,Brisepotière,47.478593,-0.5282140000000001,0,Europe/Paris,1
BLERIO-E,3197,Blériot,47.486142,-0.5634370000000001,0,Europe/Paris,1
VILLES-E,26023,Villesicard,47.452417,-0.5383890000000001,0,Europe/Paris,1
VAURAG-E,22290,Vauragère,47.472796,-0.6355260000000001,0,Europe/Paris,1
MOUCHE-E,794078,Moucherie,47.577048,-0.5448190000000001,0,Europe/Paris,1
CHATA-E,657686,Chataignier,47.545858,-0.6498860000000001,0,Europe/Paris,0
PATIO,680234,Patio,47.510719,-0.6517960000000002,0,Europe/Paris,0
SCHWAL-E,32531,Schwalbach,47.504045,-0.6025070000000001,0,Europe/Paris,1
DLECOT-E,,Le Coteau -reporté-,47.397227,-0.545479,0,Europe/Paris,0
GIRAD-E,53995,Girardeau,47.436438,-0.5204080000000001,0,Europe/Paris,1
1HARA,24652,Foch-Haras,47.466815,-0.5526570000000001,0,Europe/Paris,1
RODIN-E,399230,Rodin,47.476076,-0.6257090000000001,0,Europe/Paris,1
GAREBOUC,13972,Bouchemaine Gare,47.416637,-0.6147440000000001,0,Europe/Paris,1
STSYCHVE,74046,Chêne Vert,47.525157,-0.4608130000000001,0,Europe/Paris,1
ECHATS,24869,Échats,47.480706,-0.632067,0,Europe/Paris,1
SOLAND-E,32488,Soland,47.399582,-0.5304680000000001,0,Europe/Paris,1
P-ANJOU,24330,Petit Anjou,47.444976,-0.6152640000000001,0,Europe/Paris,0
GERI25,4572,Grands Ruaux,47.565824,-0.5557580000000001,0,Europe/Paris,0
2BEAU,,Beaussier,47.476464,-0.5991649999999999,0,Europe/Paris,1
ESPMONTR,15922,Espéranto,47.529419,-0.6036580000000001,0,Europe/Paris,1
2MOLIE,,Molière,47.474036,-0.5556759999999999,0,Europe/Paris,1
SPORBR-E,27038,Briollay Stade,47.561812,-0.5052890000000001,0,Europe/Paris,0
CHACOMME,27218,CCI,47.468177,-0.5578200000000001,0,Europe/Paris,1
CNFPT,22225,CNFPT,47.472384,-0.5997780000000001,0,Europe/Paris,1
JULESVER,11240,Jules Verne,47.447479,-0.5622239999999999,0,Europe/Paris,1
BOHASALE,300213,Chemin Salette,47.424704,-0.388942,0,Europe/Paris,0
DTOUSS-E,,Toussaint Hodée -reporté-,47.499546,-0.425488,0,Europe/Paris,0
5ROUTES,408706,Cinq routes,47.484379,-0.643557,0,Europe/Paris,1
FOUSSE-E,25785,Fousseaux,47.515807,-0.4686310000000001,0,Europe/Paris,0
WPMAY,77362,Plateau Mayenne,47.495882,-0.5803580000000002,0,Europe/Paris,1
PLACEN-E,19486,Place Ney,47.478569,-0.5430980000000001,0,Europe/Paris,1
ETAS,32370,ETAS,47.524535,-0.619971,0,Europe/Paris,0
WPMA-E,53276,Plateau Mayenne,47.496335,-0.5792630000000001,0,Europe/Paris,1
DEBUSS-E,612,Debussy,47.48842,-0.5158300000000001,0,Europe/Paris,1
PIVERDIE,30771,Piverdière,47.43766,-0.6096120000000002,0,Europe/Paris,1
DJEANC-E,,Jean Carmet -reporté-,47.40057,-0.5406190000000001,0,Europe/Paris,0
FRESNAIE,23491,Fresnaies,47.448053,-0.5004830000000001,0,Europe/Paris,1
ECOTIE-E,24531,Écotière,47.363601,-0.5056260000000001,0,Europe/Paris,0
VIVIERS,29924,Viviers,47.451693,-0.5352000000000001,0,Europe/Paris,1
MLYAUTEY,15814,Maréchal Lyautey,47.491712,-0.5837730000000001,0,Europe/Paris,1
GADIFAIX,789137,Gadifaix,47.576137,-0.449491,0,Europe/Paris,0
LOTVILSC,477611,Lotissement Villevèque,47.556469,-0.425549,0,Europe/Paris,0
WVERN,27317,Verneau,47.492391,-0.5675280000000001,0,Europe/Paris,1
MAISRO-E,17645,Maisons Rouges,47.474413,-0.5118090000000001,0,Europe/Paris,1
1HDVA,194430,Hôtel de Ville,47.471695,-0.5467910000000001,0,Europe/Paris,1
TRELA-AR,749046,Quantinière,47.459869,-0.4755280000000001,0,Europe/Paris,1
VEAUDORE,93934,Veau Doré,47.476012,-0.413596,0,Europe/Paris,0
2BASC,3822,Bascule,47.508781,-0.5914920000000001,0,Europe/Paris,1
HARENC,18680,Harenchères,47.448695,-0.6156030000000001,0,Europe/Paris,1
ANRO-5B,12151,Roseraie,47.443776,-0.5536720000000001,0,Europe/Paris,1
PRIEUR-E,19657,Prieuré,47.471869,-0.6335740000000001,0,Europe/Paris,1
JONCHERE,356135,Jonchères,47.383757,-0.5490260000000001,0,Europe/Paris,1
JAURIO-E,377846,Auriol,47.491289,-0.5649350000000001,0,Europe/Paris,1
TROPAROI,30515,Trois Paroisses,47.441944,-0.5345110000000001,0,Europe/Paris,1
2FMBL,3788,Foch-Maison Bleue,47.468932,-0.5496560000000001,0,Europe/Paris,1
MAIRTR-E,3669,Trélazé Mairie,47.445486,-0.4682660000000001,0,Europe/Paris,1
ROYALE,278420,Royale,47.471633,-0.341125,0,Europe/Paris,1
MORSU-E,77571,Morel,47.475671,-0.6086800000000001,0,Europe/Paris,0
IRLANDE,8934,Irlande,47.522992,-0.6049780000000001,0,Europe/Paris,1
LCHATAIG,30413,Châtaigneraie,47.441338,-0.6078000000000001,0,Europe/Paris,1
BAUDON,289578,Baudon,47.539386,-0.5793100000000001,0,Europe/Paris,0
CLINANJO,21645,Clinique de L'Anjou,47.44443,-0.5391160000000002,0,Europe/Paris,1
NARCE,424467,Lycée de Narcé,47.444599,-0.42749,0,Europe/Paris,0
NOZAY,32625,Nozay,47.487728,-0.5320760000000001,0,Europe/Paris,1
BREMON-E,25430,Gares Bremont,47.465969,-0.5592970000000002,0,Europe/Paris,1
PEPINI-E,11360,Trélazé Gare,47.452088,-0.4696080000000001,0,Europe/Paris,1
ROCEPINE,636,Roc Épine,47.480326,-0.575926,0,Europe/Paris,1
BICHON2,,Bichon,47.478811,-0.5651510000000001,0,Europe/Paris,0
BOULLE,7334,Boulle,47.486717,-0.6285790000000001,0,Europe/Paris,1
VILVECOL,28122,Villevêque École,47.560853,-0.421632,0,Europe/Paris,0
LBALUERE,37252,Baluères,47.377628,-0.5246729999999999,0,Europe/Paris,0
MASJLIN,20807,St-Jean Mairie,47.458073,-0.6584410000000001,0,Europe/Paris,0
JARDBOTA,815390,Jardin Botanique,47.571711,-0.5026050000000001,0,Europe/Paris,0
BELLANGE,8582,Bellangerie,47.482203,-0.6848910000000001,0,Europe/Paris,0
POMANJO,18732,Pomanjou,47.500232,-0.5208510000000001,0,Europe/Paris,0
BBRANCHE,22762,Bellebranche,47.528127,-0.5283110000000001,0,Europe/Paris,1
SAUBIN-P,633066,St-Aubin La Salle,47.489698,-0.5035500000000001,0,Europe/Paris,0
BOISEPI2,142312,Bois d'Épinard,47.474589,-0.3302590000000001,0,Europe/Paris,0
CHAU-E,268887,La Chauvelaie,47.436456,-0.5844410000000001,0,Europe/Paris,0
MALNOUE,193265,Malnoue,47.369096,-0.5172490000000001,0,Europe/Paris,0
NOYANT,207687,Noyant,47.563367,-0.5456580000000001,0,Europe/Paris,0
CHBBEI-E,22139,Chapelle Belle-Beille,47.475463,-0.5859930000000001,0,Europe/Paris,1
BRISPO-E,341704,Brisepotière,47.478477,-0.5280560000000001,0,Europe/Paris,1
LOGIND-E,955453,Logis Notre-Dame,47.498444,-0.428875,0,Europe/Paris,1
RESTUN-E,28833,Restau U,47.479546,-0.6003579999999999,0,Europe/Paris,1
2LAFA,15573,La Fayette,47.46083,-0.5546060000000002,0,Europe/Paris,1
PLMACE,32166,Plessis-Macé Mairie,47.543828,-0.6751380000000001,0,Europe/Paris,0
MEIGNA-E,11052,Meignanne,47.484411,-0.5826220000000001,0,Europe/Paris,1
EPINAY,158422,L'Épinay,47.432636,-0.377326,0,Europe/Paris,0
2BOTA,22213,Terra Botanica,47.494268,-0.5747590000000001,0,Europe/Paris,1
FMAURI-E,924548,Mauriac,47.455307,-0.4716060000000001,0,Europe/Paris,1
AUTRIC-E,30185,Autriche,47.522911,-0.6094030000000001,0,Europe/Paris,1
1STRA,7319,Strasbourg,47.456676,-0.5540389999999999,0,Europe/Paris,1
FENEUBUS,36001,Feneu Église,47.569634,-0.5944090000000001,0,Europe/Paris,1
BOUTHO-E,12112,Bouché Thomas,47.444585,-0.5502620000000001,0,Europe/Paris,1
CHEVA-E,28793,Chevallerie,47.554744,-0.6609640000000001,0,Europe/Paris,0
MADELE-E,10442,Madeleine,47.459044,-0.5355890000000001,0,Europe/Paris,1
LUTIN,32534,Lutin,47.475761,-0.5344200000000001,0,Europe/Paris,1
CCICHA-E,24375,CCI,47.468365,-0.557633,0,Europe/Paris,1
RTEROUSS,50541,Haute Roussière,47.571888,-0.6499320000000001,0,Europe/Paris,0
HMTRE-E,20239,08-mai,47.449399,-0.4649950000000001,0,Europe/Paris,1
PATIO-E,129375,Patio,47.510819,-0.6517330000000001,0,Europe/Paris,0
BOSCH,10110,Bois Rinier,47.476582,-0.4979890000000001,0,Europe/Paris,0
BLITOURN,8555,Blitourne,47.527103,-0.434297,0,Europe/Paris,0
MONTECLA,15647,Montéclair,47.464498,-0.6048030000000001,0,Europe/Paris,1
PERDRIAU,4087,Perdriau,47.439734,-0.4873720000000001,0,Europe/Paris,0
EBLE-E,844041,Eblé,47.455391,-0.5663250000000001,0,Europe/Paris,0
RIPOLE-E,5826,Ripollet,47.511172,-0.5883690000000001,0,Europe/Paris,1
ATHLETIS,30156,Athlétis,47.441615,-0.5279490000000001,0,Europe/Paris,1
LOR-FO-A,3039,Foch-Maison Bleue,47.46963,-0.5485740000000001,0,Europe/Paris,1
LECHENE,12874,Le Chêne,47.420953,-0.5759950000000001,0,Europe/Paris,1
RAPIDEX,21736,Rapidex,47.502756,-0.5140890000000001,0,Europe/Paris,1
JEANRO-E,256324,Collège Jean Rostand,47.448195,-0.5010260000000001,0,Europe/Paris,1
GRUICH-E,560134,Gruiche,47.555054,-0.4510110000000001,0,Europe/Paris,0
CAMELI-E,10436,Camélia,47.471343,-0.5192360000000001,0,Europe/Paris,1
MAISNE-E,819362,Maison Neuve,47.453832,-0.428021,0,Europe/Paris,0
AVENEURO,31525,Avenue de l'Europe,47.527947,-0.5957800000000001,0,Europe/Paris,1
BEDIER-E,14067,Bédier,47.449912,-0.5527609999999999,0,Europe/Paris,1
MAISONSR,8771,Maisons Rouges,47.474491,-0.5119250000000001,0,Europe/Paris,1
ARBORETU,32544,Arboretum,47.449317,-0.5441430000000002,0,Europe/Paris,1
ROCHE-E,20309,Rochette,47.528737,-0.7511860000000001,0,Europe/Paris,0
CLOSVIGN,17761,Clos de la Vigne,47.441596,-0.6112930000000001,0,Europe/Paris,1
CHANTOUR,20438,Chantourteau,47.406116,-0.6231260000000001,0,Europe/Paris,1
STLEOB-E,6958,St-Léonard,47.459544,-0.5219710000000001,0,Europe/Paris,1
NONNA-E,8443,Les Nonnains,47.586766,-0.423518,0,Europe/Paris,0
RONCERAY,10261,Ronceray,47.529591,-0.5649010000000001,0,Europe/Paris,0
INTMIL-E,1195,Intermarché,47.455738,-0.5337830000000001,0,Europe/Paris,1
DOMVAL,15402,Domaine du Val,47.537042,-0.6250430000000001,0,Europe/Paris,1
CONFLUEN,147473,Confluence,47.505056,-0.5077290000000001,0,Europe/Paris,0
LECLSYLV,29018,Maréchal Leclerc,47.518515,-0.4665220000000001,0,Europe/Paris,1
PAQUER-E,22063,Paquerette,47.485962,-0.6495180000000002,0,Europe/Paris,0
CEZANNE,20935,Cézanne,47.469797,-0.4918960000000001,0,Europe/Paris,1
DANEMA,11354,Danemark,47.527855,-0.5975510000000001,0,Europe/Paris,1
DEGAUL-E,17571,De Gaulle,47.453109,-0.4782160000000001,0,Europe/Paris,0
HMAI,11449,Lorraine,47.47034,-0.5471990000000001,0,Europe/Paris,1
RONCER-E,20665,Ronceray,47.530018,-0.5653140000000001,0,Europe/Paris,0
LEGRAS,24887,Legras,47.529259,-0.5669710000000001,0,Europe/Paris,0
LOUDIN-E,616610,L'Oudinais,47.552193,-0.429209,0,Europe/Paris,1
RENAR-E,19748,Renardière,47.483725,-0.6744660000000001,0,Europe/Paris,0
TALET,364496,Talet,47.476405,-0.5476740000000001,0,Europe/Paris,1
BBRANC-E,27533,Bellebranche,47.528251,-0.5283099999999999,0,Europe/Paris,1
PAVILL-E,7849,Pavillon,47.46594,-0.6209760000000001,0,Europe/Paris,0
TARTEL-E,963865,Tartelusse,47.558812,-0.437852,0,Europe/Paris,0
BRAIBOIS,551743,Croix de Bois,47.449156,-0.425423,0,Europe/Paris,0
ESTAMINE,579551,L'Estaminet,47.565738,-0.5038770000000001,0,Europe/Paris,0
STLAUR-E,26259,Stade Raymond Kopa,47.461425,-0.5316670000000001,0,Europe/Paris,1
LEFEVRE,15440,Lefèvre,47.443291,-0.4886970000000001,0,Europe/Paris,1
GAUGUI-E,397148,Paul Gauguin,47.526696,-0.4641420000000001,0,Europe/Paris,1
GROIES.2,16726,Groies,47.492026,-0.399656,0,Europe/Paris,0
JUINGE-E,351294,Juingères,47.499458,-0.4127430000000001,0,Europe/Paris,1
ECHMAN,20511,Echman,47.490175,-0.5758060000000002,0,Europe/Paris,1
MALEM-E2,,ZI Malembardières,47.451592,-0.4735880000000001,0,Europe/Paris,0
BELOEIL,7658,Bel Oeil,47.426686,-0.5566620000000001,0,Europe/Paris,0
HAUCOUD,318097,Haut Coudray,47.530417,-0.6240380000000001,0,Europe/Paris,1
PERUSS-E,4185,Pérussaie,47.465529,-0.5954580000000002,0,Europe/Paris,1
PLDULYCE,23588,Place du Lycée,47.466874,-0.5443750000000001,0,Europe/Paris,1
STLEON-E,7367,St-Léonard,47.459772,-0.5208560000000001,0,Europe/Paris,1
PAGNOL-E,548981,Pagnol,47.554224,-0.6685270000000001,0,Europe/Paris,0
BEDIER,16246,Bédier,47.450112,-0.5526500000000001,0,Europe/Paris,0
BOREAU-E,806695,Boreau,47.475299,-0.5458470000000001,0,Europe/Paris,0
STJOS-E,14109,St-Joseph,47.464782,-0.5411330000000001,0,Europe/Paris,1
VILBRG-E,645260,Beauregard,47.533845,-0.43472,0,Europe/Paris,0
MONPROFI,18765,Monprofit,47.474657,-0.5675180000000001,0,Europe/Paris,1
1BMAI,16196,Berges de Maine,47.479341,-0.5493820000000001,0,Europe/Paris,1
CORMIER,24903,Cormiers,47.458362,-0.5159260000000001,0,Europe/Paris,1
PIECE-E,23406,Pièce du Moulin,47.507385,-0.5969790000000001,0,Europe/Paris,1
LAVOIR-E,10144,Lavoir,47.44076,-0.4989700000000001,0,Europe/Paris,1
BLEUNI-E,447015,Bleunière,47.556716,-0.424157,0,Europe/Paris,1
SABLON-E,28751,Sablons,47.439789,-0.5333329999999999,0,Europe/Paris,1
LESTOUCH,784899,Les Touches,47.537297,-0.5711540000000001,0,Europe/Paris,0
COROT-E,,Corot,47.470834,-0.4896620000000001,0,Europe/Paris,1
ERIGNE,30529,Érigné,47.40081,-0.530603,0,Europe/Paris,1
VIEUXP-E,658385,Vieux Port,47.571102,-0.4923030000000001,0,Europe/Paris,0
CITESO-E,3002,La Cité-Chabada,47.488508,-0.5356630000000001,0,Europe/Paris,1
BELLAN-E,32424,Bellangerie,47.482347,-0.6845340000000001,0,Europe/Paris,0
VICT-D-E,415331,Victor Hugo,47.523543,-0.4674060000000001,0,Europe/Paris,1
SALETT-E,613884,Salette,47.51263,-0.586802,0,Europe/Paris,1
LANGEVI,20461,Langevin,47.518469,-0.6121250000000001,0,Europe/Paris,1
PTJOUR,18366,Point du Jour,47.474264,-0.319784,0,Europe/Paris,0
HJOU32-E,32588,Haie Joulain,47.517487,-0.4627360000000001,0,Europe/Paris,0
DAUTEL,22320,Dautel,47.44282,-0.4836880000000001,0,Europe/Paris,0
ZABRUNEL,1456,ZA Brunelleries,47.439073,-0.6201810000000001,0,Europe/Paris,1
TUFFIERE,132042,Tuffière,47.503222,-0.376703,0,Europe/Paris,0
BIAIS,889875,Biais,47.584722,-0.5393289999999999,0,Europe/Paris,0
POMONE,14481,Pomone,47.481356,-0.57459,0,Europe/Paris,1
CTRETR-E,6456,Centre de Tri,47.452567,-0.5707920000000001,0,Europe/Paris,1
BELVTR-E,29169,Bellevue,47.44785,-0.5079660000000001,0,Europe/Paris,1
MADELEIN,20411,Madeleine,47.459277,-0.53568,0,Europe/Paris,1
BEAUVAL,9892,Beauval,47.451403,-0.5504289999999999,0,Europe/Paris,0
RTECHA-E,31093,Route de Champigné,47.57234,-0.5933120000000001,0,Europe/Paris,0
RMOINES,6489,Roche aux Moines,47.393847,-0.6457400000000001,0,Europe/Paris,0
VICT-D,98126,Victor Hugo,47.52349,-0.4674690000000001,0,Europe/Paris,1
CHAGALL,409509,Chagall,47.560054,-0.6775170000000001,0,Europe/Paris,0
EMPIRE-E,15466,Empiré,47.422909,-0.5933060000000001,0,Europe/Paris,0
LOMBARD,43351,Lombardières,47.442497,-0.6903580000000001,0,Europe/Paris,0
MOREL-E,6741,Morel,47.474985,-0.6085199999999999,0,Europe/Paris,1
BMAI-9C,14427,Berges de Maine,47.478749,-0.5496240000000001,0,Europe/Paris,1
JEJAUR-E,5930,Jean Jaurès,47.457683,-0.5228190000000001,0,Europe/Paris,1
BOURGLAC,28777,Bourg la Croix,47.450806,-0.5237370000000001,0,Europe/Paris,0
BOUTEI-E,117791,Bouteillerie,47.478836,-0.431989,0,Europe/Paris,0
VALINI-E,347379,Petites Valinières,47.507146,-0.44506,0,Europe/Paris,0
CHADL-E,8514,Champdollant,47.556395,-0.5614240000000001,0,Europe/Paris,0
DELAUNE,,Delaune,47.500779,-0.5898070000000001,0,Europe/Paris,0
MTARDAT,689169,Tardat,47.444948,-0.5515860000000001,0,Europe/Paris,1
HAUCHAPE,330203,Hautes Chapelles,47.475581,-0.380963,0,Europe/Paris,1
GAUBLOCB,21184,Gaubourgs,47.448444,-0.5732550000000001,0,Europe/Paris,0
DOMVAL-E,366109,Domaine du Val,47.536901,-0.6249749999999999,0,Europe/Paris,1
GATS,7008,Les Gâts,47.474404,-0.5176560000000001,0,Europe/Paris,1
HRECULEE,11114,Haute de Reculée,47.485006,-0.5526620000000001,0,Europe/Paris,0
PLOTINIE,32677,Plotinière,47.472288,-0.433233,0,Europe/Paris,0
MONNETSC,26460,Monnet,47.465874,-0.5992060000000001,0,Europe/Paris,0
MAUNY,269348,Mauny,47.525641,-0.6672230000000001,0,Europe/Paris,1
ROFOULQ,55701,Roche Foulques,47.575868,-0.4547690000000001,0,Europe/Paris,0
LABROS-E,19344,La Brosse,47.532455,-0.5221450000000001,0,Europe/Paris,0
JUINDR-E,792287,Juindries,47.506171,-0.382566,0,Europe/Paris,0
AUBEPINE,8536,Aubépine,47.461705,-0.4959840000000001,0,Europe/Paris,1
MA4VE-E,22693,Mail des 4 Vents,47.531851,-0.5284489999999999,0,Europe/Paris,0
VAUBA2-E,18400,Vauban,47.46,-0.5607880000000001,0,Europe/Paris,1
AROBASE,21097,Arobase,47.464591,-0.5315460000000001,0,Europe/Paris,1
VERNUSSO,32414,Floriloire,47.430422,-0.5422040000000001,0,Europe/Paris,1
HUTREAU,10466,Hutreau,47.432917,-0.5545020000000001,0,Europe/Paris,0
Z_ANRO,,Arrière-Gare Roseraie,47.444143,-0.5524730000000001,0,Europe/Paris,0
ANFRANCK,6103,Anne Frank,47.463559,-0.5377729999999999,0,Europe/Paris,1
DAGUER-E,8833,Dojo Daguerre,47.44656,-0.5068270000000001,0,Europe/Paris,1
PTASSI-E,17550,Pôle Tassigny,47.446472,-0.5374150000000001,0,Europe/Paris,1
GRANPI-E,22564,Grand Pin,47.473301,-0.6316560000000001,0,Europe/Paris,1
PARCEX-E,13525,Parc Expo,47.496987,-0.4934070000000001,0,Europe/Paris,1
LEQUAI-E,22373,Le Quai,47.472179,-0.5662620000000002,0,Europe/Paris,1
